City_ID,City,Lat,Lng,Max Temp,Humidity,Cloudiness,Wind Speed,Country,Date
0,bethel,41.3712,-73.414,284.82,92,100,1.79,US,1741235816
1,thabazimbi,-24.5917,27.4116,295.35,71,0,1.13,ZA,1741235817
2,talnakh,69.4865,88.3972,261.83,95,100,3.73,RU,1741235818
3,fale old settlement,-9.3852,-171.2468,301.48,63,67,1.34,TK,1741235819
4,olonkinbyen,70.9221,-8.7187,270.0,66,42,8.62,SJ,1741235820
5,kimbe,-5.5502,150.1429,302.7,73,64,2.99,PG,1741235822
6,constantia,44.1833,28.65,277.53,69,3,3.59,RO,1741235823
7,port alfred,-33.5906,26.891,294.36,98,76,4.27,ZA,1741235824
8,la passe,45.5549,-0.8967,281.1,78,6,6.53,FR,1741235825
9,ulsteinvik,62.3432,5.8487,283.32,72,100,5.36,NO,1741235826
10,edinburgh of the seven seas,-37.0676,-12.3116,289.67,66,67,5.46,SH,1741235827
11,jayapura,-2.5333,140.7,307.81,79,78,4.0,ID,1741235828
12,coquimbo,-29.9533,-71.3436,291.0,91,100,1.54,CL,1741235829
13,fort st. john,56.2499,-120.8529,274.09,69,0,2.06,CA,1741235601
14,papatowai,-46.5619,169.4708,290.12,62,77,3.24,NZ,1741235832
15,adamstown,-25.066,-130.1015,299.05,72,16,3.62,PN,1741235833
16,crane,31.3974,-102.3501,286.57,27,90,6.36,US,1741235834
17,kudat,6.8837,116.8477,299.11,94,40,3.13,MY,1741235835
18,nova sintra,14.8667,-24.7167,294.41,66,73,6.43,CV,1741235836
19,namanga,-2.5433,36.7905,291.72,80,53,1.57,KE,1741235837
20,castillos,-34.1667,-53.8333,296.08,81,16,3.07,UY,1741235839
21,xilin hot,43.9667,116.0333,274.76,27,19,5.08,CN,1741235840
22,nema,57.5067,50.5011,267.3,96,100,2.97,RU,1741235842
23,isafjordur,66.0755,-23.124,268.95,91,99,1.59,IS,1741235843
24,mili,6.0815,171.735,300.65,79,80,9.4,MH,1741235844
25,jamestown,42.097,-79.2353,277.05,90,100,7.2,US,1741235660
26,arraial do cabo,-22.9661,-42.0278,297.96,86,1,3.81,BR,1741235569
27,tindouf,27.6711,-8.1474,286.4,54,40,3.09,DZ,1741235849
28,dudinka,69.4058,86.1778,263.99,95,100,4.7,RU,1741235850
29,ribeira grande,38.5167,-28.7,285.8,80,95,1.34,PT,1741235851
30,waitangi,-43.9535,-176.5597,286.94,93,99,2.24,NZ,1741235852
31,kapuskasing,49.4169,-82.4331,258.2,85,100,6.69,CA,1741235702
32,port mathurin,-19.6833,63.4167,300.78,80,13,10.95,MU,1741235855
33,laojunmiao,39.8333,97.7333,273.42,49,88,2.49,CN,1741235856
34,garden city,42.3256,-83.331,275.31,85,100,10.8,US,1741235695
35,utrik,11.2278,169.8474,299.96,79,5,9.62,MH,1741235858
36,geraldton,-28.7667,114.6,306.38,40,4,5.66,AU,1741235859
37,bilibino,68.0546,166.4372,246.84,99,91,1.14,RU,1741235860
38,avarua,-21.2078,-159.775,300.18,83,75,2.06,CK,1741235862
39,ust-nera,64.5667,143.2,250.64,90,100,1.61,RU,1741235863
40,gizo,-8.103,156.8419,301.23,75,100,1.54,SB,1741235864
41,zawiercie,50.4877,19.4168,276.69,78,0,2.37,PL,1741235866
42,port-aux-francais,-49.35,70.2167,280.55,94,100,10.58,TF,1741235867
43,ceeldheer,3.8488,47.1806,300.74,67,79,7.6,SO,1741235868
44,peniche,39.3558,-9.3811,285.49,96,99,3.84,PT,1741235870
45,pano aqil,27.8569,69.1116,300.46,4,14,1.27,PK,1741235871
46,hun,29.1268,15.9477,285.78,50,100,6.1,LY,1741235872
47,la ronge,55.1001,-105.2842,263.29,62,75,2.57,CA,1741235873
48,darnah,32.767,22.6367,287.46,79,17,4.48,LY,1741235874
49,kangding,30.0513,101.9603,276.0,86,98,3.25,CN,1741235875
50,blackmans bay,-43.0167,147.3167,291.33,59,42,0.45,AU,1741235876
51,nabire,-3.3667,135.4833,303.19,66,42,3.34,ID,1741235878
52,grytviken,-54.2811,-36.5092,278.59,90,87,6.09,GS,1741235879
53,ciro marina,39.3732,17.126,284.85,67,0,1.35,IT,1741235880
54,tobol'sk,58.2,68.2667,262.73,92,97,3.59,RU,1741235771
55,udachny,66.4167,112.4,253.99,89,98,1.85,RU,1741235882
56,puerto natales,-51.7236,-72.4875,277.14,92,22,0.85,CL,1741235883
57,cestos city,5.46,-9.5828,297.84,88,99,1.69,LR,1741235884
58,ao luek,8.378,98.7212,307.26,50,100,2.57,TH,1741235885
59,vadso,70.0744,29.7487,270.24,93,75,3.09,NO,1741235887
60,berdigestyakh,62.0989,126.6992,251.37,84,97,2.71,RU,1741235888
61,kalmunai,7.4167,81.8167,300.68,68,66,2.2,LK,1741235889
62,badger,64.8,-147.5333,275.08,70,75,0.0,US,1741235890
63,ilulissat,69.2167,-51.1,256.16,60,37,3.09,GL,1741235891
64,vorgashor,67.5833,63.95,255.21,98,92,2.15,RU,1741235892
65,jiangzi,28.95,89.6333,272.66,5,0,1.08,CN,1741235893
66,antsiranana,-12.2787,49.2917,300.57,78,40,3.09,MG,1741235895
67,iqaluit,63.7506,-68.5145,250.0,77,100,0.0,CA,1741235896
68,tralee,52.2704,-9.7026,279.84,96,73,2.87,IE,1741235897
69,alotau,-10.3069,150.4462,304.69,58,71,3.4,PG,1741235899
70,walvis bay,-22.9575,14.5053,291.68,82,100,0.51,NA,1741235900
71,mersa matruh,31.3525,27.2453,290.26,77,40,4.63,EG,1741235902
72,anadyr,64.75,177.4833,251.43,77,6,6.0,RU,1741235903
73,vanimo,-2.6741,141.3028,302.85,70,59,4.01,PG,1741235904
74,yaransk,57.3033,47.8861,270.63,97,100,4.4,RU,1741235905
75,colonia,50.9333,6.95,278.12,72,0,2.56,DE,1741235906
76,pisco,-13.7,-76.2167,295.18,88,20,1.54,PE,1741235907
77,albany,42.6001,-73.9662,283.02,94,100,1.79,US,1741235869
78,puerto ayora,-0.7393,-90.3518,297.34,100,77,2.0,EC,1741235910
79,saipan,15.1355,145.701,304.54,77,40,6.69,MP,1741235911
80,bredasdorp,-34.5322,20.0403,292.3,90,6,0.98,ZA,1741235912
81,messaad,34.1543,3.5031,282.08,91,100,5.84,DZ,1741235913
82,nagqu,31.5,92.0,269.13,9,27,8.72,CN,1741235914
83,polyarnyy,69.1989,33.4478,266.8,95,98,2.75,RU,1741235915
84,tura,25.5198,90.2201,301.81,14,0,2.13,IN,1741235916
85,thompson,55.7435,-97.8558,258.24,72,100,6.69,CA,1741235917
86,emerald,-23.5333,148.1667,311.12,25,20,2.91,AU,1741235919
87,new norfolk,-42.7826,147.0587,291.99,39,56,1.64,AU,1741235920
88,hawaiian paradise park,19.5933,-154.9731,296.88,88,20,2.57,US,1741235921
89,east london,-33.0153,27.9116,294.67,94,100,1.03,ZA,1741235745
90,san luis de la loma,17.2706,-100.8939,295.53,80,44,1.71,MX,1741235923
91,punta arenas,-53.15,-70.9167,278.21,87,0,2.57,CL,1741235924
92,enewetak,11.3474,162.3373,300.15,82,3,9.59,MH,1741235925
93,saint-pierre,-21.3393,55.4781,301.97,54,0,2.57,RE,1741235926
94,chongwe,-15.3292,28.682,293.47,97,16,2.09,ZM,1741235928
95,oriximina,-1.7656,-55.8661,296.1,97,100,1.62,BR,1741235929
96,bhind,26.5642,78.7883,298.63,10,0,5.86,IN,1741235930
97,georgetown,5.4112,100.3354,305.12,62,20,6.69,MY,1741235931
98,bushehr,28.9684,50.8385,292.2,63,100,3.09,IR,1741235932
99,charters towers,-20.1,146.2667,307.42,36,26,5.2,AU,1741235933
100,vilyuchinsk,52.9306,158.4028,270.3,58,8,6.46,RU,1741235934
101,yemetsk,63.4721,41.7941,271.09,96,100,2.94,RU,1741235936
102,kodiak,57.79,-152.4072,275.88,65,0,2.57,US,1741235937
103,ust-tsilma,65.441,52.1498,264.38,93,98,4.04,RU,1741235939
104,tysmenytsya,48.9022,24.8448,276.75,51,51,0.75,UA,1741235940
105,ermoupolis,37.4423,24.9425,286.54,71,0,9.77,GR,1741235941
106,guerrero negro,27.9769,-114.0611,286.98,87,3,4.6,MX,1741235929
107,northam,51.0333,-4.2167,276.93,97,0,0.89,GB,1741235945
108,chirpan,42.2,25.3333,277.91,69,42,1.78,BG,1741235946
109,senanga,-16.1167,23.2667,292.23,90,4,2.02,ZM,1741235947
110,chikmagalur,13.3167,75.7833,302.04,27,16,3.69,IN,1741235943
111,petropavlovsk-kamchatsky,53.0452,158.6483,269.48,24,0,8.0,RU,1741235949
112,mount gambier,-37.8333,140.7667,292.63,62,12,6.55,AU,1741235950
113,mount pearl,47.5166,-52.7813,270.55,81,20,3.6,CA,1741235952
114,atafu village,-8.5421,-172.5159,301.42,67,31,2.53,TK,1741235953
115,college,64.8569,-147.8028,275.12,59,75,0.0,US,1741235954
116,mildura,-34.2,142.15,306.52,35,43,5.96,AU,1741235956
117,pipar,26.3856,73.5378,298.67,6,0,4.19,IN,1741235957
118,horta,38.5333,-28.6333,285.38,79,84,0.89,PT,1741235958
119,west island,-12.1568,96.8225,301.14,83,40,7.72,CC,1741235960
120,jilib,0.4883,42.7854,300.66,69,82,3.74,SO,1741235961
121,portrush,55.1959,-6.6493,279.05,81,100,7.52,GB,1741235962
122,carnarvon,-24.8667,113.6333,307.92,45,0,5.09,AU,1741235963
123,klyuchi,52.2667,79.1667,268.28,78,94,7.24,RU,1741235964
124,murzuq,25.9155,13.9184,287.29,43,89,5.06,LY,1741235965
125,kununurra,-15.7667,128.7333,312.14,32,10,3.09,AU,1741235824
126,ponta delgada,37.7333,-25.6667,286.95,85,100,5.02,PT,1741235967
127,severo-yeniseyskiy,60.3725,93.0408,265.66,84,100,3.51,RU,1741235969
128,longyearbyen,78.2186,15.6401,266.06,73,40,1.54,SJ,1741235970
129,kailua-kona,19.6406,-155.9956,298.46,80,4,0.45,US,1741235971
130,holualoa,19.6228,-155.9522,296.39,80,16,0.45,US,1741235972
131,puquio,-14.7,-74.1333,281.79,91,100,0.62,PE,1741235973
132,ushuaia,-54.8,-68.3,279.96,76,40,2.57,AR,1741235737
133,tofol,5.3248,163.0078,303.03,70,75,6.17,FM,1741235975
134,tvoroyri,61.5556,-6.8111,279.97,69,100,10.1,FO,1741235977
135,as sulayyil,20.4607,45.5779,297.67,15,34,3.39,SA,1741235978
136,broome,42.2506,-75.833,282.98,92,100,4.63,US,1741235979
137,nemuro,43.3236,145.575,271.73,95,100,9.43,JP,1741235980
138,puerto quijarro,-17.7833,-57.7667,294.93,91,28,0.84,BO,1741235981
139,tolanaro,-25.0319,46.9987,299.19,89,20,3.09,MG,1741235982
140,mareeba,-17.0,145.4333,306.42,37,0,3.26,AU,1741235984
141,selfoss,63.9331,-20.9971,272.62,85,100,4.7,IS,1741235985
142,puerto baquerizo moreno,-0.9,-89.6,299.35,82,99,3.36,EC,1741235986
143,idri,27.5,13.2667,288.29,40,100,5.05,LY,1741235987
144,qaqortoq,60.7167,-46.0333,258.19,76,100,1.72,GL,1741235988
145,hotan,37.0997,79.9269,279.81,22,88,2.16,CN,1741235989
146,tabuk,17.4189,121.4443,302.37,70,38,2.34,PH,1741235990
147,puerto aysen,-45.4,-72.7,282.5,100,100,1.15,CL,1741235992
148,remire-montjoly,4.9167,-52.2667,297.17,94,100,1.03,GF,1741235993
149,dampit,-8.2116,112.7493,305.08,53,34,2.35,ID,1741235994
150,invercargill,-46.4,168.35,289.83,74,52,5.36,NZ,1741235995
151,flin flon,54.7682,-101.865,258.2,94,88,3.3,CA,1741235996
152,ayr,55.4627,-4.6339,280.14,80,20,5.66,GB,1741235997
153,north auburn,38.9313,-121.0819,281.18,92,100,6.26,US,1741235998
154,jackson,42.4165,-122.8345,281.08,64,100,3.09,US,1741235999
155,rongelap,11.1635,166.8941,300.03,80,0,9.3,MH,1741236001
156,boyabat,41.4689,34.7667,276.53,65,49,1.61,TR,1741236002
157,aripuana,-9.1667,-60.6333,294.83,99,100,0.98,BR,1741236003
158,sevastopol,44.6,33.5333,280.85,78,98,0.34,UA,1741236004
159,sitka,57.0531,-135.33,281.09,66,100,5.14,US,1741236005
160,jingdezhen,29.2947,117.2079,284.17,62,88,3.0,CN,1741236006
161,port douglas,-16.4833,145.4667,302.25,61,0,2.44,AU,1741236007
162,keflavik,64.0049,-22.5624,274.39,93,75,9.26,IS,1741236009
163,happy valley-goose bay,53.3168,-60.3315,253.32,71,20,3.09,CA,1741236010
164,susuman,62.7833,148.1667,248.77,78,100,1.07,RU,1741236011
165,yelm,46.942,-122.606,279.41,86,100,1.9,US,1741236012
166,alice springs,-23.7,133.8833,309.9,12,0,7.72,AU,1741236014
167,misawa,40.6836,141.3597,274.17,97,100,4.43,JP,1741236015
168,urjala,61.0833,23.5333,278.27,95,100,4.53,FI,1741236017
169,hirara,24.8,125.2833,290.3,94,75,14.92,JP,1741235943
170,muravlenko,63.7898,74.523,259.07,96,93,4.46,RU,1741236019
171,kavaratti,10.5669,72.642,301.42,75,9,2.5,IN,1741236020
172,san antonio de pale,-1.4014,5.6325,300.88,80,99,3.53,GQ,1741236021
173,island harbour,50.724,-1.2758,278.56,90,3,2.93,GB,1741236022
174,magadan,59.5667,150.8,256.84,79,100,1.11,RU,1741236023
175,codrington,-38.2667,141.9667,290.93,87,99,8.07,AU,1741236025
176,pandan,14.0453,124.1694,302.24,73,80,4.4,PH,1741236027
177,st. paul,44.9444,-93.0933,269.56,77,0,3.09,US,1741235794
178,labasa,-16.4167,179.3833,299.98,86,98,4.9,FJ,1741236029
179,yellowknife,62.456,-114.3525,252.44,84,0,2.57,CA,1741235980
180,hasaki,35.7333,140.8333,283.46,57,100,4.61,JP,1741236032
181,san patricio,28.017,-97.5169,285.12,54,12,3.67,US,1741236033
182,uturoa,-16.7333,-151.4333,301.37,73,54,4.29,PF,1741236034
183,wailua homesteads,22.0669,-159.378,296.59,85,75,7.2,US,1741236035
184,sao jose da coroa grande,-8.8978,-35.1478,298.88,76,24,3.92,BR,1741236036
185,kristiansund,63.1115,7.732,282.66,61,75,17.49,NO,1741236037
186,vila franca do campo,37.7167,-25.4333,286.81,89,100,3.05,PT,1741236038
187,tiksi,71.6872,128.8694,248.43,97,97,2.41,RU,1741236040
188,chela,34.069,104.4619,271.95,71,100,1.97,CN,1741236041
189,banda aceh,5.5577,95.3222,301.29,73,100,2.58,ID,1741236042
190,emporia,38.4039,-96.1817,272.26,64,0,2.57,US,1741235994
191,chernyshevskiy,63.0128,112.4714,260.41,89,100,3.12,RU,1741236044
192,gilgit,35.9221,74.3087,272.9,37,53,1.38,PK,1741236045
193,koungou,-12.7336,45.2042,302.99,74,100,3.09,YT,1741236048
194,champerico,14.3,-91.9167,300.0,70,1,2.21,GT,1741236049
195,scarborough,54.2797,-0.4044,279.14,64,0,3.58,GB,1741236050
196,baardheere,2.3446,42.2764,300.63,62,6,4.68,SO,1741236051
197,rosso,16.4986,-15.8153,290.71,70,100,6.69,SN,1741236053
198,robit,12.0167,39.6333,293.24,60,4,1.81,ET,1741236054
199,nar'yan-mar,67.6713,53.087,263.01,91,72,5.92,RU,1741236055
200,perevolotskiy,51.8763,54.1938,269.06,96,93,1.9,RU,1741236056
201,bayanhongor,46.7167,100.1167,260.22,84,8,0.9,MN,1741236057
202,umm ruwaba,12.9061,31.2158,294.72,14,1,4.97,SD,1741236058
203,ketchikan,55.3422,-131.6461,280.41,85,100,5.14,US,1741236060
204,bahia de kino,28.8333,-111.9333,290.87,54,69,3.84,MX,1741236061
205,acarau,-2.8856,-40.12,298.32,86,99,4.29,BR,1741236062
206,aykhal,66.0,111.5,255.28,89,97,1.61,RU,1741236063
207,rio preto da eva,-2.6994,-59.6997,295.99,99,100,1.26,BR,1741236064
208,margaret river,-33.95,115.0667,302.25,45,60,4.66,AU,1741236065
209,mahenge,-8.6833,36.7167,291.93,93,93,0.97,TZ,1741236066
210,rezh,57.37,61.4043,264.98,91,100,2.47,RU,1741236068
211,jasper,37.2001,-94.3502,274.47,66,0,0.0,US,1741235916
212,marolambo,-20.05,48.1167,297.42,85,100,0.09,MG,1741236070
213,hermanus,-34.4187,19.2345,293.6,91,3,0.62,ZA,1741236071
214,revda,56.801,59.9303,264.98,91,100,2.59,RU,1741236072
215,bafq,31.6128,55.4107,289.53,51,99,0.94,IR,1741236073
216,cidreira,-30.1811,-50.2056,297.67,85,1,9.55,BR,1741236075
217,labrador city,52.9463,-66.9114,256.1,71,100,0.0,CA,1741236013
218,sretensk,52.2453,117.7093,266.48,79,54,1.05,RU,1741236077
219,kasongo,-4.45,26.6667,292.38,96,100,0.58,CD,1741236078
220,hede,33.7681,120.2517,282.15,41,10,5.95,CN,1741236079
221,nebraska city,40.6767,-95.8592,270.39,80,0,3.6,US,1741236081
222,gangavalli,11.4983,78.6497,305.53,28,66,0.84,IN,1741236082
223,queenstown,-31.8976,26.8753,295.31,56,2,2.42,ZA,1741236083
224,aasiaat,68.7098,-52.8699,249.34,100,78,2.34,GL,1741236084
225,oamaru,-45.0784,170.9801,288.92,64,5,2.47,NZ,1741236085
226,taldykorgan,45.0156,78.3739,276.48,88,82,3.27,KZ,1741236062
227,zima,53.9202,102.0442,269.41,78,84,3.59,RU,1741236088
228,port elizabeth,-33.918,25.5701,293.88,96,75,4.12,ZA,1741235969
229,arinos,-15.9169,-46.1056,293.93,70,32,1.26,BR,1741236090
230,khorixas,-20.3667,14.9667,296.16,73,67,1.85,NA,1741236091
231,lompoc,34.6391,-120.4579,284.09,89,100,5.66,US,1741236092
232,okhotsk,59.3833,143.3,255.12,77,64,3.96,RU,1741236093
233,dunedin,-45.8742,170.5036,287.84,65,56,0.66,NZ,1741236094
234,huancayo,-12.0667,-75.2333,284.99,82,100,1.02,PE,1741236096
235,palikir - national government center,6.9248,158.1611,304.62,69,75,5.14,FM,1741236097
236,tazovsky,67.4667,78.7,262.92,95,100,3.11,RU,1741236098
237,safotu,-13.4513,-172.4018,300.92,78,80,3.2,WS,1741236099
238,titao,13.7667,-2.0667,301.42,18,44,4.3,BF,1741236100
239,qamdo,31.1667,97.2333,270.8,49,100,3.28,CN,1741236101
240,guijuelo,40.5576,-5.6707,279.77,91,100,1.29,ES,1741236103
241,wenling,28.3669,121.36,283.05,67,97,8.88,CN,1741236104
242,goure,13.9835,10.2704,294.27,15,4,4.01,NE,1741236105
243,fort bragg,35.139,-79.006,288.06,59,0,7.72,US,1741236106
244,placido de castro,-10.3353,-67.1856,296.08,97,100,0.3,BR,1741236107
245,iquique,-20.2208,-70.1431,293.67,81,93,1.11,CL,1741236108
246,qarauyl,48.9451,79.255,272.2,71,71,8.25,KZ,1741236109
247,portland,45.5234,-122.6762,282.4,73,40,6.71,US,1741236111
248,fomboni,-12.28,43.7425,301.75,76,100,3.62,KM,1741236112
249,aljezur,37.3191,-8.8033,284.5,91,15,1.47,PT,1741236113
250,chokwe,-24.5333,32.9833,298.56,83,1,1.03,MZ,1741236114
251,tangalle,6.024,80.7911,302.11,64,99,1.43,LK,1741236115
252,stephenville,32.2207,-98.2023,283.22,46,0,0.0,US,1741236116
253,novodvinsk,64.4165,40.8122,272.01,97,97,2.61,RU,1741236117
254,hovd,48.0056,91.6419,261.3,85,100,2.9,MN,1741236119
255,khandyga,62.6667,135.6,246.75,85,100,0.38,RU,1741236120
256,arno,60.1167,18.6333,281.46,80,94,9.72,SE,1741236121
257,linxia chengguanzhen,35.6003,103.2064,270.83,83,100,0.87,CN,1741235942
258,la mira,18.035,-102.3266,295.3,84,35,1.02,MX,1741236124
259,gulf shores,30.246,-87.7008,286.48,44,0,5.66,US,1741236028
260,shihezi,44.3,86.0333,271.67,86,82,2.17,CN,1741235942
261,yamada,39.4667,141.95,275.83,99,100,2.56,JP,1741236128
262,luau,-10.7073,22.2247,290.96,97,92,1.71,AO,1741236129
263,haiku-pauwela,20.9219,-156.3051,297.16,67,0,10.8,US,1741236130
264,mont-dore,-22.2833,166.5833,300.52,76,95,3.64,NC,1741236132
265,namibe,-15.1961,12.1522,297.12,78,100,1.4,AO,1741236133
266,swakopmund,-22.6833,14.5333,293.01,82,93,2.98,NA,1741236134
267,hammerfest,70.6634,23.6821,267.4,86,94,1.03,NO,1741236135
268,tshabong,-26.05,22.45,298.02,55,12,3.69,BW,1741236136
269,tirmiz,37.2242,67.2783,284.2,54,0,1.03,UZ,1741236138
270,yuxi,24.355,102.5422,295.59,32,13,4.44,CN,1741236140
271,tobol,52.6844,62.5794,267.5,98,100,0.8,KZ,1741236141
272,coxen hole,16.3244,-86.5366,299.0,88,0,1.54,HN,1741236142
273,iskateley,67.6803,53.1512,263.01,91,72,5.95,RU,1741236143
274,chanasma,23.7167,72.1167,301.35,6,0,1.47,IN,1741236144
275,sidi khaled,34.387,4.9879,284.7,77,37,1.3,DZ,1741236145
276,hampton bays,40.869,-72.5176,284.74,96,100,12.96,US,1741236146
277,samana,19.2056,-69.3369,295.04,92,22,1.23,DO,1741236148
278,greymouth,-42.4667,171.2,289.71,57,0,2.84,NZ,1741236149
279,abeche,13.8292,20.8324,294.75,14,88,5.47,TD,1741236150
280,kruisfontein,-34.0033,24.7314,292.85,89,12,1.0,ZA,1741236151
281,cajabamba,-7.6167,-78.05,285.41,89,100,1.53,PE,1741236152
282,yarmouth,41.7057,-70.2286,282.58,96,100,6.17,US,1741236153
283,santa marta,11.2408,-74.199,301.18,59,20,11.18,CO,1741236154
284,naze,28.3667,129.4833,284.66,82,100,8.5,JP,1741236156
285,karratha,-20.7377,116.8463,315.77,14,3,7.48,AU,1741235882
286,weyburn,49.6668,-103.8511,268.27,93,28,4.63,CA,1741235928
287,broken hill,-31.95,141.4333,306.3,15,0,8.09,AU,1741236159
288,rawlins,41.7911,-107.2387,274.46,55,100,0.0,US,1741236055
289,wenchang,30.904,118.4887,284.28,52,41,4.43,CN,1741236161
290,catabola,-12.15,17.2833,288.78,96,100,1.37,AO,1741236162
291,tanjung selor,2.8372,117.3642,303.49,63,98,2.17,ID,1741236164
292,visby,57.6409,18.296,281.5,81,100,11.32,SE,1741236165
293,kerrville,30.0474,-99.1403,284.0,44,0,0.0,US,1741236162
294,platteville,42.7342,-90.4785,271.56,80,0,4.63,US,1741236025
295,kill devil hills,36.0307,-75.676,286.16,82,40,6.17,US,1741236168
296,summerside,46.3959,-63.7876,276.22,93,100,8.23,CA,1741236169
297,soe,-9.8607,124.284,302.25,48,41,2.04,ID,1741236170
298,stanley,54.868,-1.6985,278.16,75,0,3.09,GB,1741236043
299,camalu,30.85,-116.0667,285.3,88,100,2.19,MX,1741236173
300,sur,22.5667,59.5289,296.67,45,0,1.26,OM,1741236174
301,belel,7.05,14.4333,290.85,22,73,0.91,CM,1741236175
302,pokrovskoye,47.4157,38.8971,278.46,73,100,5.35,RU,1741236176
303,santiago de cao,-7.9589,-79.2392,295.22,83,96,2.06,PE,1741236177
304,hamilton,39.1834,-84.5333,275.6,82,100,7.72,US,1741236180
305,takestan,36.0696,49.6959,277.38,92,100,0.17,IR,1741236181
306,zapolyarnyy,69.4154,30.8136,268.27,93,95,2.1,RU,1741236182
307,newman,37.3138,-121.0208,281.51,83,74,1.34,US,1741235925
308,pearsall,28.8922,-99.095,285.84,42,36,4.67,US,1741236184
309,suva,-18.1416,178.4415,298.86,100,75,4.63,FJ,1741236185
310,ha tinh,18.3333,105.9,290.92,89,100,5.61,VN,1741236186
311,chonchi,-42.6128,-73.8092,288.22,99,100,2.9,CL,1741236188
312,hadjout,36.5126,2.4138,286.83,75,82,3.48,DZ,1741236189
313,huangyan,28.6478,121.2594,282.65,70,95,5.24,CN,1741236190
314,kaifeng,34.7911,114.3483,285.29,32,79,2.71,CN,1741236191
315,poronaysk,49.2167,143.1167,267.68,73,100,2.08,RU,1741236192
316,tan-tan,28.438,-11.1032,286.73,87,1,3.53,MA,1741236193
317,kone,-21.0595,164.8658,300.61,83,97,0.22,NC,1741236195
318,salinopolis,-0.6136,-47.3561,297.55,88,96,0.58,BR,1741236196
319,vorozhba,51.1733,34.2192,278.8,69,100,7.25,UA,1741236197
320,rikaze,29.25,88.8833,279.31,6,0,0.32,CN,1741236198
321,luderitz,-26.6481,15.1594,292.07,75,97,4.76,NA,1741236200
322,sainte-anne-des-monts,49.124,-66.4924,272.08,93,100,5.66,CA,1741236183
323,port lincoln,-34.7333,135.8667,294.45,54,18,7.99,AU,1741236203
324,pontianak,-0.0333,109.3333,304.14,74,75,3.6,ID,1741236204
325,masuguru,-11.3667,38.4167,297.27,95,54,0.89,TZ,1741236205
326,ujae,8.9322,165.7642,300.56,78,1,9.45,MH,1741236206
327,juhaynah,26.6732,31.4976,285.29,71,1,4.83,EG,1741236207
328,midvagur,62.0511,-7.1939,278.61,81,75,6.17,FO,1741236208
329,vaasa,63.096,21.6158,274.85,100,100,2.68,FI,1741236210
330,bikenibeu village,1.3673,173.1241,302.13,79,20,5.14,KI,1741236212
331,timimoun,29.2639,0.231,289.36,39,40,2.06,DZ,1741236213
332,mangrol,21.1167,70.1167,300.53,22,0,2.95,IN,1741236214
333,kyadabek,40.5656,45.8161,275.73,55,6,1.14,AZ,1741236215
334,mariental,-24.6333,17.9667,297.37,57,3,2.45,NA,1741236217
335,sarh,9.1429,18.3923,299.18,19,41,1.87,TD,1741236218
336,sannicandro garganico,41.8384,15.5654,280.99,62,0,1.81,IT,1741236220
337,lewistown,40.5992,-77.5714,282.82,71,75,6.17,US,1741236222
338,pangody,65.85,74.4859,259.22,95,91,3.91,RU,1741236223
339,dryden,49.7833,-92.7503,265.31,53,0,2.57,CA,1741236225
340,serdar,38.9764,56.2757,282.7,48,0,4.66,TM,1741236227
341,lotoshino,56.2267,35.6414,276.65,91,100,6.91,RU,1741236228
342,rozelle,-33.8614,151.1705,299.85,65,40,6.17,AU,1741236229
343,ouani,-12.1322,44.4258,301.63,74,100,2.76,KM,1741236230
344,kenai,60.5544,-151.2583,276.2,97,100,2.06,US,1741236232
345,kendari,-3.945,122.4989,303.93,69,55,1.99,ID,1741236233
346,gordonvale,-17.0936,145.7842,304.03,43,1,2.88,AU,1741236234
347,turkmenbasy,40.0222,52.9552,276.58,93,0,2.06,TM,1741236235
348,meadow lakes,61.6247,-149.6011,277.08,80,0,4.12,US,1741236236
349,kishanpur,25.65,81.0167,298.05,12,0,4.79,IN,1741236237
350,zeya,53.75,127.2667,261.55,56,2,2.39,RU,1741236238
351,nefteyugansk,61.0998,72.6035,259.87,93,70,4.58,RU,1741236240
352,golpazari,40.2847,30.3172,277.42,69,34,0.92,TR,1741236241
353,n'dalatando,-9.2978,14.9116,292.77,98,100,0.84,AO,1741236242
354,sofifi,0.7349,127.576,301.42,76,100,1.36,ID,1741236243
355,salahonda,2.1019,-78.7217,298.86,82,100,2.41,CO,1741236244
356,chiredzi,-21.05,31.6667,295.98,77,36,0.83,ZW,1741236245
357,mombetsu,44.3525,143.3525,271.16,93,75,3.6,JP,1741236246
358,lihue,21.9789,-159.3672,296.92,83,75,7.2,US,1741236248
359,masterton,-40.9597,175.6575,288.6,46,0,3.84,NZ,1741236249
360,cascais,38.6979,-9.4215,285.79,81,90,1.79,PT,1741236250
361,bridgewater,44.3835,-64.5155,279.32,92,100,6.17,CA,1741236251
362,tucuma,-0.1833,-50.05,295.66,95,98,1.02,BR,1741236252
363,praia da vitoria,38.7333,-27.0667,286.29,76,75,5.06,PT,1741236253
364,jelenia gora,50.8997,15.729,278.18,64,0,2.37,PL,1741236254
365,la'ie,21.6477,-157.9253,300.13,79,46,1.34,US,1741236255
366,kingston,17.997,-76.7936,299.68,74,40,2.06,JM,1741236257
367,plettenberg bay,-34.0527,23.3716,292.29,90,0,1.48,ZA,1741236258
368,dzuunharaa,48.8523,106.4579,269.63,71,30,1.74,MN,1741236259
369,vacaria,-28.5122,-50.9339,289.98,87,62,4.84,BR,1741236260
370,gadzhiyevo,69.2551,33.3362,266.34,96,99,2.51,RU,1741236261
371,inhambane,-23.865,35.3833,299.14,94,75,0.0,MZ,1741236262
372,cozumel,20.5083,-86.9458,298.68,87,18,5.01,MX,1741236264
373,richards bay,-28.783,32.0377,297.17,85,7,4.01,ZA,1741236265
374,gagarin,55.5529,34.9954,276.47,94,100,5.91,RU,1741236064
375,zilair,52.2332,57.4392,267.09,93,96,0.33,RU,1741236267
376,ust'-ilimsk,58.0006,102.6619,267.63,90,100,2.68,RU,1741236268
377,olinda,-8.0089,-34.8553,301.0,74,40,6.17,BR,1741236269
378,weno,7.4515,151.8468,304.12,79,40,4.63,FM,1741236270
379,taupo,-38.6833,176.0833,291.32,36,5,2.82,NZ,1741236272
380,fallon,39.4735,-118.7774,276.08,91,100,1.54,US,1741236273
381,datong,40.0936,113.2914,276.05,25,21,0.99,CN,1741236274
382,hobyo,5.3505,48.5268,300.27,74,49,8.04,SO,1741236275
383,yung shue wan,22.2333,114.1167,287.38,82,97,3.38,HK,1741236276
384,asau,46.4333,26.4,276.02,50,79,3.51,RO,1741236277
385,santa cruz,-17.8,-63.1667,295.85,94,95,1.03,BO,1741236094
386,mount isa,-20.7333,139.5,311.02,23,20,2.57,AU,1741236280
387,derzhavinsk,51.1,66.3167,272.07,96,100,8.14,KZ,1741236062
388,rechka-vydrino,51.485,104.8461,270.07,91,100,2.89,RU,1741236282
389,conde,-7.2597,-34.9075,296.85,100,20,2.57,BR,1741236283
390,mahina,-17.5065,-149.489,302.02,70,75,0.51,PF,1741236285
391,campbell river,50.0163,-125.2446,277.29,93,20,2.06,CA,1741236027
392,ad dabbah,18.05,30.95,290.4,29,0,4.36,SD,1741236288
393,berezovyy,51.6667,135.7,262.84,75,100,1.91,RU,1741236289
394,sinan,34.8262,126.1086,276.52,73,25,9.52,KR,1741236290
395,tamandare,-8.7597,-35.1047,298.72,77,48,3.47,BR,1741236291
396,hondo,32.45,130.2,283.64,57,100,8.81,JP,1741236292
397,whitehorse,60.7161,-135.0538,274.58,59,75,6.71,CA,1741236293
398,port saint john's,-31.6229,29.5448,298.43,86,27,3.22,ZA,1741236294
399,taulaga,-11.0553,-171.0883,301.52,64,77,0.97,AS,1741236296
400,salalah,17.0151,54.0924,298.2,73,75,2.06,OM,1741236297
401,lebu,-37.6167,-73.65,287.99,93,85,4.29,CL,1741236298
402,katsuren-haebaru,26.3369,127.8719,290.16,92,100,6.69,JP,1741236299
403,sao felix do xingu,-6.6447,-51.995,293.74,98,100,0.38,BR,1741236300
404,xochitlan todos santos,18.7,-97.7833,286.28,66,17,4.25,MX,1741236301
405,riberalta,-10.9833,-66.1,295.82,99,92,0.81,BO,1741236302
406,piton saint-leu,-21.2196,55.3151,301.21,54,0,2.06,RE,1741236304
407,afaahiti,-17.75,-149.2833,300.09,71,87,3.2,PF,1741236305
408,cannonvale,-20.2833,148.7,302.81,67,0,6.19,AU,1741236306
409,nicoya,10.1483,-85.452,296.61,69,47,1.24,CR,1741236307
410,alamogordo,32.8995,-105.9603,286.46,20,40,4.63,US,1741236308
411,puerto rico,-26.796,-55.024,295.11,72,7,1.45,AR,1741236309
412,saldanha,-33.0117,17.9442,290.18,94,22,3.79,ZA,1741236310
413,lemvig,56.5486,8.3102,277.98,87,8,7.34,DK,1741236312
414,saynshand,44.8824,110.1163,276.52,32,100,9.07,MN,1741236313
415,cukurca,37.2481,43.6136,275.45,63,44,2.59,TR,1741236314
416,rovnoye,50.7765,46.0509,272.97,99,100,6.39,RU,1741236315
417,howrah,22.5892,88.3103,298.15,31,5,5.14,IN,1741236115
418,new braunfels,29.703,-98.1245,286.49,42,0,2.06,US,1741236317
419,sisimiut,66.9395,-53.6735,251.82,88,12,2.3,GL,1741236318
420,san fernando,15.0286,120.6898,308.0,40,60,2.61,PH,1741236320
421,kuta,-8.7233,115.1723,304.12,79,20,5.66,ID,1741236321
422,manuguru,17.981,80.7547,304.17,9,61,3.42,IN,1741236322
423,inarajan village,13.2736,144.7484,303.37,83,90,6.6,GU,1741236323
424,salto,-31.3833,-57.9667,303.08,72,3,2.24,UY,1741236059
425,kosh-agach,50.0,88.6667,257.98,68,56,0.85,RU,1741236325
426,smithers,54.7804,-127.1743,275.33,80,100,1.03,CA,1741236327
427,newcastle,-32.9272,151.7765,296.88,86,75,5.66,AU,1741236328
428,turi,40.9173,17.0212,275.75,93,0,1.03,IT,1741236329
429,shalqar,47.8333,59.6,273.45,93,100,8.79,KZ,1741236330
430,nantucket,41.2835,-70.0995,281.21,93,100,14.66,US,1741236331
431,trincomalee,8.5711,81.2335,299.34,71,23,1.49,LK,1741236332
432,lyubim,58.3625,40.6843,273.75,96,78,3.51,RU,1741236333
433,gettysburg,39.8309,-77.2311,284.75,77,94,6.66,US,1741236334
434,mudbidri,13.0833,74.9833,301.94,74,20,0.0,IN,1741236336
435,laguna,38.421,-121.4238,282.72,78,0,5.14,US,1741236337
436,luocheng,29.3848,104.0286,284.01,73,100,0.47,CN,1741236338
437,pedro ii,-4.4247,-41.4586,293.78,84,97,0.28,BR,1741236339
438,saint croix,17.7397,-64.7388,298.4,91,75,2.57,VI,1741236340
439,urucara,-2.5364,-57.76,295.1,100,100,1.26,BR,1741236341
440,tongliao,43.6125,122.2653,276.21,22,0,3.82,CN,1741236342
441,lagos,6.5833,3.75,299.51,86,44,1.61,NG,1741236344
442,nuuk,64.1835,-51.7216,261.49,79,100,8.23,GL,1741236345
443,baiyin,36.5583,104.2081,274.82,45,100,1.63,CN,1741236346
444,amsterdam,52.374,4.8897,278.09,66,0,2.68,NL,1741236091
445,thief river falls,48.1191,-96.1812,267.11,93,0,1.54,US,1741236348
446,tshikapa,-6.4167,20.8,293.83,97,97,0.18,CD,1741236349
447,ambodivoara,-14.3397,49.9826,299.84,78,96,0.75,MG,1741236350
448,candido mendes,-1.4467,-45.7167,295.85,98,98,0.36,BR,1741236352
449,tsaratanana,-16.7833,47.65,298.19,67,26,3.5,MG,1741236353
450,bardai,11.65,7.2333,294.68,14,10,5.53,NG,1741236354
451,kraslava,55.8951,27.168,279.43,86,100,6.32,LV,1741236355
452,pudozh,61.8099,36.5345,271.57,94,97,2.83,RU,1741236356
453,maues,-3.3836,-57.7186,295.14,98,100,1.53,BR,1741236357
454,illizi,26.4833,8.4667,292.4,50,99,2.31,DZ,1741236358
455,santa ana,33.7456,-117.8678,285.51,94,100,2.68,US,1741236361
456,bueng kan,18.363,103.6519,305.65,39,73,2.89,TH,1741236362
457,st. john's,47.5649,-52.7093,271.01,83,20,3.6,CA,1741236094
458,tekeli,44.83,78.8239,276.28,67,16,4.75,KZ,1741236364
459,tame,6.461,-71.73,301.05,53,99,1.79,CO,1741236365
460,belyy yar,53.6039,91.3903,263.09,92,100,0.0,RU,1741236366
461,altamira,-3.2033,-52.2064,294.56,99,100,0.21,BR,1741236369
462,plymouth,41.8334,-70.8328,284.9,93,100,7.2,US,1741236189
463,tsiombe,-25.3,45.4833,300.14,87,34,3.07,MG,1741236371
464,changqing,36.5575,116.7272,284.39,29,19,3.6,CN,1741236372
465,akrehamn,59.2667,5.1833,280.29,93,100,6.17,NO,1741236373
466,kargopol',61.5071,38.9456,272.4,97,98,2.73,RU,1741236375
467,pangai,-19.8,-174.35,302.21,84,75,3.09,TO,1741236376
468,ancud,-41.8697,-73.8203,288.06,98,100,5.82,CL,1741236377
469,serang,-6.1149,106.1502,304.7,62,98,1.46,ID,1741236378
470,jalalaqsi,3.3766,45.5996,299.68,62,80,5.44,SO,1741236379
471,shani,10.2162,12.062,298.8,16,57,0.97,NG,1741236380
472,amphoe sikhiu,14.8994,101.7083,308.76,94,56,1.03,TH,1741236382
473,kismayo,-0.3582,42.5454,299.91,75,85,4.82,SO,1741236383
474,upata,8.0086,-62.3989,294.49,88,6,3.27,VE,1741236384
475,mandalgovi,45.7625,106.2708,272.8,32,100,5.24,MN,1741236385
476,pariaman,-0.619,100.12,301.18,79,100,1.89,ID,1741236386
477,esquel,-42.9,-71.3167,285.24,90,100,1.34,AR,1741236188
478,ondjiva,-17.0667,15.7333,292.68,88,79,2.33,AO,1741236388
479,tocopilla,-22.092,-70.1979,294.05,71,34,0.25,CL,1741236391
480,souillac,-20.5167,57.5167,302.36,79,40,5.14,MU,1741236392
481,minas de marcona,-15.2119,-75.1103,291.23,83,89,2.53,PE,1741236393
482,aswan,24.0934,32.907,288.76,51,0,3.6,EG,1741236394
483,maun,-19.9833,23.4167,294.13,100,0,2.06,BW,1741236395
484,ntui,4.45,11.6333,295.79,89,87,2.08,CM,1741236396
485,novyy urgal,51.0736,132.5642,259.21,71,64,1.34,RU,1741236398
486,altos,-5.0381,-42.46,295.56,95,100,1.02,BR,1741236400
487,harper,4.375,-7.7169,298.09,89,97,1.8,LR,1741236401
488,piti village,13.4626,144.6933,303.32,74,20,6.17,GU,1741236402
489,sao tome,0.3365,6.7273,300.41,82,100,4.58,ST,1741236403
490,el alto,-4.2714,-81.2147,297.28,83,100,3.44,PE,1741236405
491,pimentel,-6.8367,-79.9342,298.31,78,75,2.57,PE,1741236406
492,tafuna,-14.3358,-170.72,302.12,79,75,1.54,AS,1741236407
493,tokuyama,34.05,131.8167,282.52,54,100,5.38,JP,1741236408
494,lewiston orchards,46.3804,-116.9754,279.19,62,99,1.1,US,1741236409
495,lagodekhi,41.8268,46.2767,276.5,64,5,1.43,GE,1741236410
496,kawambwa,-9.7915,29.0791,290.84,94,40,1.61,ZM,1741236411
497,brookings,44.3114,-96.7984,270.4,80,100,1.54,US,1741236413
498,kalat,29.0225,66.5916,283.49,33,0,4.7,PK,1741236414
499,kalymnos,36.95,26.9833,286.89,76,0,7.2,GR,1741236415
500,kralendijk,12.15,-68.2667,298.14,83,28,3.09,BQ,1741236416
501,galvez,-32.0293,-61.221,299.77,46,90,3.68,AR,1741236418
502,quchan,37.106,58.5095,280.15,39,48,0.87,IR,1741236419
503,micheweni,-4.9667,39.8333,300.98,71,25,1.19,TZ,1741236420
504,sola,-13.8833,167.55,301.48,70,100,3.74,VU,1741236421
505,thames,-37.1333,175.5333,295.04,31,4,2.15,NZ,1741236422
506,yashkul',46.1711,45.3435,277.95,80,99,11.44,RU,1741236423
507,muroto-misakicho,33.2833,134.15,284.33,57,100,0.92,JP,1741236424
508,phon charoen,18.0333,103.1667,309.14,39,39,5.42,TH,1741236426
509,sandnessjoen,66.0217,12.6316,276.21,93,75,4.63,NO,1741236428
510,dunda,-8.1167,34.25,292.24,86,59,1.2,TZ,1741236429
511,hithadhoo,-0.6,73.0833,301.0,76,100,3.42,MV,1741236430
512,paducah,37.0834,-88.6001,276.27,68,100,6.17,US,1741236431
513,yorkton,51.2167,-102.4677,265.55,91,38,5.22,CA,1741236157
514,kudahuvadhoo,2.6708,72.8944,300.64,72,50,1.97,MV,1741236435
515,protaras,35.0125,34.0583,289.81,75,28,3.13,CY,1741236436
516,villa maria,-32.4075,-63.2402,302.7,47,55,5.83,AR,1741236319
517,morant bay,17.8815,-76.4093,297.63,83,6,0.99,JM,1741236438
518,ke-macina,13.9623,-5.3572,303.28,17,98,4.06,ML,1741236439
519,kidal,18.4411,1.4078,298.37,13,50,3.43,ML,1741236440
520,undurkhaan,47.3194,110.6556,273.29,26,100,5.58,MN,1741236442
521,pacajus,-4.1725,-38.4606,295.82,97,100,0.85,BR,1741236443
522,mhamid,29.82,-5.72,287.79,44,24,2.13,MA,1741236444
523,rabka-zdroj,49.6089,19.9665,276.03,64,0,2.05,PL,1741236445
524,zhumysker,49.3333,49.4,271.4,92,100,5.07,KZ,1741236446
525,shimoda,34.6667,138.95,284.58,64,100,5.55,JP,1741236447
526,vorkuta,67.5,64.0,254.71,98,99,1.75,RU,1741236449
527,necochea,-38.5473,-58.7368,293.9,94,71,8.09,AR,1741236438
528,ternate,0.8,127.4,301.18,75,100,1.21,ID,1741236451
529,thunder bay,48.4001,-89.3168,266.14,58,100,4.12,CA,1741236154
530,ensenada,31.8667,-116.6167,287.01,100,74,1.23,MX,1741236303
531,nyagan,62.1406,65.3936,258.54,97,100,2.97,RU,1741236454
532,khuzdar,27.7384,66.6434,292.33,18,4,7.06,PK,1741236455
533,okha,53.5739,142.9478,254.61,74,5,5.71,RU,1741236456
534,trashi yangtse,27.6116,91.498,290.23,44,4,3.48,BT,1741236458
535,el tocuyo,9.7873,-69.7937,295.42,84,49,0.31,VE,1741236212
536,wynyard,-41.0,145.7167,292.81,60,100,2.57,AU,1741236460
537,san lorenzo de esmeraldas,1.2883,-78.8369,296.69,94,100,1.4,EC,1741236461
538,argo,37.6333,22.7333,280.51,54,0,2.59,GR,1741236462
539,nova vicosa,-17.8919,-39.3719,297.84,83,0,3.66,BR,1741236463
540,puerto gaitan,4.3133,-72.0816,298.65,77,84,1.25,CO,1741236464
541,cabo san lucas,22.8909,-109.9124,290.28,64,35,3.25,MX,1741236466
542,callao,-12.0667,-77.15,297.44,83,0,4.12,PE,1741236169
543,taro,-8.3862,115.28,301.9,67,70,1.35,ID,1741236468
544,cromer,52.9312,1.2989,277.67,78,0,4.85,GB,1741236469
545,muang xay,20.7,101.9833,307.95,15,4,1.34,LA,1741236470
546,westport,41.1415,-73.3579,285.52,93,100,5.66,US,1741236304
547,swift current,50.2834,-107.8014,267.6,100,0,3.09,CA,1741236472
548,waimea,20.0231,-155.6717,292.29,82,0,2.24,US,1741236474
549,rondonopolis,-16.4708,-54.6356,294.31,93,100,1.43,BR,1741236199
550,nuku'alofa,-21.1333,-175.2,303.34,70,20,2.57,TO,1741236477
551,salekhard,66.53,66.6019,258.39,96,100,1.55,RU,1741236478
552,tanout,14.9709,8.8879,294.49,17,4,5.23,NE,1741236479
553,canto del llano,8.1761,-80.973,299.63,63,75,0.45,PA,1741236480
554,forster,-32.1667,152.5167,295.85,86,96,8.69,AU,1741236482
555,i-n-salah,27.1935,2.4607,291.32,56,100,7.0,DZ,1741236483
556,roxas,11.5853,122.7511,302.0,72,94,4.07,PH,1741236484
557,seaside,36.6111,-121.8516,282.91,93,100,2.57,US,1741236485
558,armacao de buzios,-22.7469,-41.8817,296.68,86,1,2.3,BR,1741236486
559,carutapera,-1.195,-46.02,296.5,95,100,1.28,BR,1741236487
560,glogowek,50.3536,17.8641,279.05,66,0,4.04,PL,1741236489
561,paranhos,-23.8928,-55.4311,294.01,75,1,2.65,BR,1741236490
562,twon-brass,4.3151,6.2418,301.04,78,94,4.32,NG,1741236491
563,kerikeri,-35.2268,173.9474,291.85,50,0,3.25,NZ,1741236492
