City_ID,City,Lat,Lng,Max Temp,Humidity,Cloudiness,Wind Speed,Country,Date
0,itoman,26.1247,127.6694,288.2,82,100,6.69,JP,1743360585
1,beinamar,8.6698,15.3813,305.61,9,100,1.84,TD,1743360586
2,turpan,42.9333,89.1667,284.39,13,100,0.33,CN,1743360588
3,petropavlovsk-kamchatsky,53.0452,158.6483,265.48,68,0,3.0,RU,1743360589
4,port-aux-francais,-49.35,70.2167,279.23,90,58,9.22,TF,1743360590
5,ushuaia,-54.8,-68.3,278.96,81,75,16.98,AR,1743360561
6,grytviken,-54.2811,-36.5092,280.25,83,100,4.34,GS,1743360592
7,st. john's,47.5649,-52.7093,276.9,76,75,6.17,CA,1743360593
8,waitangi,-43.9535,-176.5597,288.05,95,100,2.24,NZ,1743360595
9,adamstown,-25.066,-130.1015,298.23,79,6,4.52,PN,1743360596
10,smithers,54.7804,-127.1743,276.33,70,75,2.57,CA,1743360598
11,papatowai,-46.5619,169.4708,280.65,81,100,1.49,NZ,1743360599
12,sibolga,1.7427,98.7792,297.85,86,100,1.24,ID,1743360600
13,beyneu,45.3167,55.2,286.47,45,1,7.51,KZ,1743360602
14,west island,-12.1568,96.8225,299.14,89,20,1.54,CC,1743360603
15,tiksi,71.6872,128.8694,251.19,100,98,1.56,RU,1743360604
16,college,64.8569,-147.8028,265.32,64,0,0.0,US,1743360605
17,bafq,31.6128,55.4107,296.39,16,19,2.33,IR,1743360606
18,peace river,56.2501,-117.286,273.32,64,0,2.06,CA,1743360607
19,vorgashor,67.5833,63.95,273.18,99,100,3.53,RU,1743360608
20,wailua homesteads,22.0669,-159.378,295.59,93,20,3.09,US,1743360610
21,faya-largeau,17.9257,19.1043,303.7,12,0,1.71,TD,1743360611
22,kone,-21.0595,164.8658,296.53,94,100,1.95,NC,1743360612
23,labytnangi,66.6572,66.4183,274.82,98,100,6.68,RU,1743360613
24,albany,42.6001,-73.9662,280.12,83,100,4.64,US,1743360574
25,colby,39.3958,-101.0524,279.26,82,100,5.66,US,1743360615
26,roma,43.2128,-75.4557,287.97,87,100,6.17,US,1743360526
27,kodiak,57.79,-152.4072,275.88,70,100,8.75,US,1743360617
28,lompoc,34.6391,-120.4579,287.6,91,100,8.23,US,1743360619
29,avarua,-21.2078,-159.775,300.18,89,40,7.2,CK,1743360620
30,iqaluit,63.7506,-68.5145,257.0,65,75,6.71,CA,1743360621
31,homer,59.6425,-151.5483,278.17,64,0,2.24,US,1743360622
32,khandyga,62.6667,135.6,256.42,93,100,2.45,RU,1743360624
33,puerto natales,-51.7236,-72.4875,282.4,61,75,10.29,CL,1743360625
34,rolla,37.9514,-91.7713,286.49,88,100,4.63,US,1743360626
35,mukalla,14.5425,49.1242,297.61,75,2,3.75,YE,1743360627
36,talnakh,69.4865,88.3972,265.39,95,100,2.62,RU,1743360628
37,mimoso do sul,-21.0642,-41.3664,300.83,60,100,2.62,BR,1743360629
38,carnarvon,-24.8667,113.6333,299.51,72,2,6.21,AU,1743360630
39,edinburgh of the seven seas,-37.0676,-12.3116,289.41,65,100,4.02,SH,1743360632
40,zeya,53.75,127.2667,254.96,98,91,1.3,RU,1743360633
41,wagar,16.1525,36.2032,308.53,11,0,4.45,SD,1743360634
42,stavanger,58.9701,5.7333,281.05,69,0,8.23,NO,1743360635
43,simanggang,1.2472,111.4528,296.14,100,100,0.0,MY,1743360636
44,anadyr,64.75,177.4833,274.43,80,40,5.0,RU,1743360637
45,hawaiian paradise park,19.5933,-154.9731,296.49,91,28,0.45,US,1743360638
46,tenno,39.9,139.9667,275.31,50,98,7.82,JP,1743360639
47,morondava,-20.2833,44.2833,300.51,80,0,4.39,MG,1743360641
48,huarmey,-10.0681,-78.1522,298.27,71,33,5.56,PE,1743360642
49,barranca,-10.75,-77.7667,297.23,69,94,4.74,PE,1743360528
50,obala,4.1667,11.5333,296.62,89,10,2.26,CM,1743360644
51,pisco,-13.7,-76.2167,298.18,65,0,4.63,PE,1743360645
52,yellowknife,62.456,-114.3525,256.44,51,75,5.14,CA,1743360416
53,okha,53.5739,142.9478,269.54,97,100,4.45,RU,1743360647
54,bilibino,68.0546,166.4372,259.21,95,100,4.3,RU,1743360648
55,nizhneudinsk,54.9076,99.0276,276.58,63,100,8.33,RU,1743360650
56,thabazimbi,-24.5917,27.4116,298.54,40,100,2.06,ZA,1743360651
57,matoury,4.8483,-52.3317,299.13,94,75,3.09,GF,1743360652
58,west wodonga,-36.1257,146.8486,290.79,73,64,4.05,AU,1743360653
59,longyearbyen,78.2186,15.6401,260.06,61,20,5.14,SJ,1743360654
60,kzyltu,53.6364,72.3414,275.96,68,32,3.81,KZ,1743360656
61,kingston,17.997,-76.7936,303.8,66,20,11.32,JM,1743360583
62,kiunga,-6.1219,141.2906,296.54,97,100,0.26,PG,1743360658
63,hinton,53.4001,-117.5857,273.27,88,11,0.7,CA,1743360659
64,ribeira grande,38.5167,-28.7,290.37,67,40,2.68,PT,1743360661
65,bel ombre,-4.6167,55.4167,300.06,89,20,1.03,SC,1743360662
66,vilyuchinsk,52.9306,158.4028,266.3,87,5,4.48,RU,1743360663
67,bethel,41.3712,-73.414,279.59,96,100,0.89,US,1743360615
68,blackmans bay,-43.0167,147.3167,283.22,93,95,0.45,AU,1743360667
69,holualoa,19.6228,-155.9522,297.06,77,100,2.06,US,1743360668
70,makhambet,47.6667,51.5833,288.8,43,0,5.65,KZ,1743360669
71,susuman,62.7833,148.1667,249.78,100,100,1.29,RU,1743360670
72,fale old settlement,-9.3852,-171.2468,302.13,73,95,4.67,TK,1743360671
73,badger,64.8,-147.5333,264.81,65,0,0.0,US,1743360673
74,hasaki,35.7333,140.8333,280.68,56,100,10.54,JP,1743360674
75,invercargill,-46.4,168.35,278.16,96,100,0.89,NZ,1743360675
76,dudinka,69.4058,86.1778,264.5,96,98,5.02,RU,1743360676
77,rio grande,-32.035,-52.0986,300.6,62,0,5.07,BR,1743360490
78,carutapera,-1.195,-46.02,301.2,78,29,3.45,BR,1743360679
79,tolanaro,-25.0319,46.9987,298.27,83,0,6.24,MG,1743360680
80,new kingman-butler,35.265,-114.0323,292.09,22,0,12.86,US,1743360681
81,port mathurin,-19.6833,63.4167,300.33,76,18,9.29,MU,1743360682
82,yuzhnoural'sk,54.4418,61.2536,278.94,58,98,3.41,RU,1743360683
83,ambon,-3.6954,128.1814,303.17,100,40,2.57,ID,1743360685
84,hermanus,-34.4187,19.2345,290.26,85,99,6.03,ZA,1743360686
85,utrik,11.2278,169.8474,299.86,79,59,8.56,MH,1743360687
86,haiku-pauwela,20.9219,-156.3051,298.73,71,100,4.92,US,1743360688
87,stjordalshalsen,63.4681,10.9262,277.15,87,75,2.06,NO,1743360689
88,babana,10.4295,3.815,308.75,20,85,0.64,NG,1743360691
89,remire-montjoly,4.9167,-52.2667,299.17,94,75,3.09,GF,1743360692
90,zaragoza,41.6561,-0.8773,288.6,37,0,8.23,ES,1743360451
91,happy valley-goose bay,53.3168,-60.3315,269.32,30,0,3.6,CA,1743360694
92,ancud,-41.8697,-73.8203,286.15,66,90,5.64,CL,1743360651
93,mbaiki,3.8678,17.9892,301.34,47,42,1.34,CF,1743360697
94,ingeniero jacobacci,-41.3427,-69.5448,286.82,27,93,13.22,AR,1743360543
95,lebu,-37.6167,-73.65,287.83,61,7,3.96,CL,1743360699
96,paungde,18.4833,95.5,300.94,39,39,0.94,MM,1743360700
97,itamaraca,-7.7478,-34.8256,302.4,75,100,4.17,BR,1743360701
98,mirialguda,16.8667,79.5833,300.23,52,7,4.16,IN,1743360702
99,thompson,55.7435,-97.8558,269.24,28,20,0.0,CA,1743360703
100,nikolayevsk-on-amure,53.1406,140.73,260.68,96,100,1.19,RU,1743360705
101,roseburg north,43.2645,-123.3033,278.57,1,100,1.05,US,1743360706
102,mu'minobod,38.1085,70.0285,282.5,56,0,4.2,TJ,1743360707
103,coquimbo,-29.9533,-71.3436,294.25,64,20,7.2,CL,1743360483
104,praia da vitoria,38.7333,-27.0667,288.29,94,75,2.89,PT,1743360489
105,eyl,7.9803,49.8164,299.46,67,0,5.85,SO,1743360711
106,puerto ayora,-0.7393,-90.3518,302.34,86,55,1.79,EC,1743360712
107,dali,25.7,100.1833,285.53,63,100,2.78,CN,1743360713
108,macas,-2.3167,-78.1167,294.01,100,100,1.54,EC,1743360607
109,punta arenas,-53.15,-70.9167,278.21,81,40,14.92,CL,1743360716
110,cidreira,-30.1811,-50.2056,303.53,70,1,5.89,BR,1743360717
111,tokar,18.4254,37.729,300.83,75,12,7.46,SD,1743360719
112,nuuk,64.1835,-51.7216,265.49,62,40,5.14,GL,1743360720
113,atafu village,-8.5421,-172.5159,301.95,72,80,4.72,TK,1743360722
114,constitucion,-35.3333,-72.4167,290.03,55,2,7.52,CL,1743360723
115,hassi messaoud,31.6804,6.0729,294.07,26,32,7.72,DZ,1743360724
116,kraslava,55.8951,27.168,281.2,75,100,3.55,LV,1743360725
117,altay,47.8667,88.1167,267.97,60,0,4.06,CN,1743360726
118,hamilton,39.1834,-84.5333,295.16,78,100,6.17,US,1743360728
119,flying fish cove,-10.4217,105.6791,297.97,94,100,2.06,CX,1743360729
120,the pas,53.8251,-101.2541,269.16,42,0,2.06,CA,1743360730
121,stanley,54.868,-1.6985,281.77,74,0,4.12,GB,1743360731
122,labrador city,52.9463,-66.9114,264.1,38,40,2.06,CA,1743360732
123,gadzhiyevo,69.2551,33.3362,272.29,76,100,3.24,RU,1743360733
124,nema,57.5067,50.5011,274.3,99,100,1.93,RU,1743360736
125,nguigmi,14.2495,13.1092,303.5,18,53,1.93,NE,1743360737
126,luena,-11.7833,19.9167,290.99,99,99,2.24,AO,1743360738
127,yabelo,4.8833,38.0833,290.41,76,92,4.63,ET,1743360739
128,jamestown,42.097,-79.2353,288.72,97,100,6.17,US,1743360571
129,alice springs,-23.7,133.8833,293.9,68,100,4.63,AU,1743360742
130,santo antonio,-6.3106,-35.4789,302.44,67,100,5.57,BR,1743360743
131,whitehorse,60.7161,-135.0538,270.94,53,75,2.06,CA,1743360744
132,olonkinbyen,70.9221,-8.7187,269.36,80,100,5.36,SJ,1743360746
133,ambodifotatra,-16.9833,49.85,301.02,74,100,4.63,MG,1743360748
134,sept-iles,50.2001,-66.3821,269.39,51,75,5.14,CA,1743360749
135,puerto deseado,-47.7503,-65.8938,284.75,47,100,8.41,AR,1743360751
136,iskateley,67.6803,53.1512,273.59,100,100,2.67,RU,1743360752
137,tabou,4.423,-7.3528,300.5,85,100,4.0,CI,1743360753
138,huancavelica,-12.7667,-74.9833,282.0,71,100,0.74,PE,1743360754
139,igarka,67.4667,86.5833,268.6,96,100,4.04,RU,1743360755
140,san antonio de pale,-1.4014,5.6325,300.9,82,84,4.37,GQ,1743360757
141,page,36.9147,-111.4558,286.55,33,100,1.54,US,1743360758
142,santa elena de uairen,4.6167,-61.1333,297.64,66,84,0.75,VE,1743360759
143,ceres,37.5949,-120.9577,288.72,74,100,6.69,US,1743360760
144,barcelos,41.5388,-8.6151,287.53,73,8,0.9,PT,1743360761
145,tabuk,17.4189,121.4443,297.23,94,99,1.02,PH,1743360762
146,fort mcmurray,56.7268,-111.381,271.92,54,100,2.06,CA,1743360763
147,viseu,40.661,-7.9097,286.07,64,4,3.66,PT,1743360765
148,san patricio,28.017,-97.5169,300.12,78,100,5.88,US,1743360766
149,chesma,53.8111,60.6533,280.32,74,100,2.19,RU,1743360767
150,udachny,66.4167,112.4,261.99,96,100,2.31,RU,1743360768
151,kill devil hills,36.0307,-75.676,297.16,53,40,7.72,US,1743360769
152,georgetown,5.4112,100.3354,299.11,79,40,2.57,MY,1743360482
153,selfoss,63.9331,-20.9971,279.84,77,100,14.72,IS,1743360772
154,mitu,1.1983,-70.1733,303.6,64,85,0.48,CO,1743360773
155,uturoa,-16.7333,-151.4333,300.83,77,40,7.46,PF,1743360774
156,santa ana,33.7456,-117.8678,292.03,64,100,2.06,US,1743360667
157,pangobilian,8.8011,117.8594,298.81,86,100,2.22,PH,1743360776
158,bom jesus,-9.0744,-44.3586,306.38,40,100,1.0,BR,1743360630
159,qamdo,31.1667,97.2333,275.34,65,100,3.55,CN,1743360779
160,east london,-33.0153,27.9116,291.67,77,0,2.57,ZA,1743360780
161,saipan,15.1355,145.701,300.54,74,75,7.2,MP,1743360781
162,tafuna,-14.3358,-170.72,298.12,94,20,0.51,AS,1743360782
163,nanfeng,23.7434,111.7959,282.37,82,100,1.55,CN,1743360783
164,guerrero negro,27.9769,-114.0611,290.82,58,5,9.13,MX,1743360785
165,usogorsk,63.4106,48.6872,277.61,96,100,2.58,RU,1743360786
166,kotra,25.8167,79.3167,297.71,8,0,2.33,IN,1743360787
167,santa vitoria do palmar,-33.5189,-53.3681,300.82,46,6,3.65,BR,1743360522
168,san luis de la loma,17.2706,-100.8939,304.23,38,5,4.92,MX,1743360789
169,dhidhdhoo,6.8833,73.1,301.9,70,80,1.11,MV,1743360790
170,jiwani,25.05,61.7417,297.74,61,0,6.45,PK,1743360792
171,villa de reyes,21.8,-100.9333,301.28,6,100,2.62,MX,1743360793
172,aasiaat,68.7098,-52.8699,262.8,86,100,3.99,GL,1743360794
173,luderitz,-26.6481,15.1594,290.87,79,0,7.3,NA,1743360795
174,griffith,41.5284,-87.4237,296.49,70,100,4.02,US,1743360796
175,bochil,16.9833,-92.9167,303.35,33,12,2.05,MX,1743360798
176,punalur,9.0,76.9333,298.03,92,6,0.6,IN,1743360799
177,kirgiz-miyaki,53.6324,54.7979,276.06,82,69,0.81,RU,1743360801
178,yatou,37.15,122.3833,275.3,59,13,1.72,CN,1743360803
179,pitimbu,-7.4706,-34.8086,302.72,72,100,5.15,BR,1743360804
180,la ronge,55.1001,-105.2842,271.29,40,40,2.57,CA,1743360806
181,pangody,65.85,74.4859,273.94,94,100,5.88,RU,1743360807
182,flin flon,54.7682,-101.865,271.06,31,20,2.57,CA,1743360808
183,vadso,70.0744,29.7487,267.24,86,5,4.12,NO,1743360809
184,keflavik,64.0049,-22.5624,277.39,93,75,7.2,IS,1743360810
185,charters towers,-20.1,146.2667,296.93,88,100,1.66,AU,1743360811
186,tralee,52.2704,-9.7026,284.48,88,100,1.94,IE,1743360812
187,ilulissat,69.2167,-51.1,263.16,57,40,3.09,GL,1743360813
188,okhotsk,59.3833,143.3,257.39,99,92,2.24,RU,1743360815
189,la passe,45.5549,-0.8967,285.37,88,100,2.57,FR,1743360816
190,panshan,41.1881,122.0494,276.05,72,24,7.14,CN,1743360818
191,mount gambier,-37.8333,140.7667,287.65,73,100,4.95,AU,1743360819
192,banyo,6.75,11.8167,299.55,32,57,1.58,CM,1743360820
193,bandundu,-3.3167,17.3667,299.43,69,92,0.18,CD,1743360822
194,tofol,5.3248,163.0078,301.16,78,97,7.96,FM,1743360823
195,aur,8.1499,171.1687,300.45,81,98,7.62,MH,1743360824
196,severo-yeniseyskiy,60.3725,93.0408,271.45,93,100,5.09,RU,1743360825
197,kamaishi,39.2667,141.8833,272.54,60,56,2.17,JP,1743360703
198,ialibu,-6.2821,143.9935,287.36,99,100,0.49,PG,1743360827
199,san felipe,10.3399,-68.7425,304.25,45,86,4.64,VE,1743360828
200,bubanza,-3.1167,29.4,293.94,92,53,1.09,BI,1743360830
201,srandakan,-7.9386,110.2506,299.79,88,100,2.29,ID,1743360832
202,yanam,16.7333,82.2167,296.9,92,21,0.67,IN,1743360833
203,margaret river,-33.95,115.0667,291.88,65,0,4.47,AU,1743360834
204,lata,40.1629,-8.3327,287.05,63,8,1.32,PT,1743360836
205,port lincoln,-34.7333,135.8667,290.33,76,83,10.81,AU,1743360837
206,cartago,4.7464,-75.9117,296.79,83,100,0.62,CO,1743360838
207,port elizabeth,-33.918,25.5701,293.88,94,75,3.6,ZA,1743360839
208,n'zeto,-7.2312,12.8666,299.6,89,100,2.89,AO,1743360840
209,weno,7.4515,151.8468,300.12,83,75,4.12,FM,1743360842
210,port moresby,-9.4431,147.1797,297.83,100,75,1.54,PG,1743360843
211,enewetak,11.3474,162.3373,299.97,78,82,9.48,MH,1743360844
212,hotan,37.0997,79.9269,281.44,16,100,1.69,CN,1743360845
213,nova sintra,14.8667,-24.7167,294.43,79,87,11.25,CV,1743360846
214,seven pagodas,12.6264,80.1722,299.78,72,6,4.19,IN,1743360847
215,chemolgan,43.1897,76.5292,278.73,57,3,2.75,KZ,1743360849
216,kavieng,-2.5744,150.7967,301.15,79,16,7.2,PG,1743360850
217,saldanha,-33.0117,17.9442,290.08,89,25,8.29,ZA,1743360851
218,ta`u,-14.2336,-169.5144,301.51,72,30,2.93,AS,1743360852
219,annau,37.8876,58.516,288.87,59,20,2.06,TM,1743360853
220,saudarkrokur,65.7461,-19.6394,274.83,85,99,2.72,IS,1743360854
221,tynda,55.1667,124.7167,247.24,100,93,0.39,RU,1743360856
222,hoa binh,20.8133,105.3383,287.1,50,100,1.68,VN,1743360857
223,pamandzi,-12.7967,45.2794,301.03,78,0,2.57,YT,1743360858
224,tacna,-18.0056,-70.2483,298.26,50,20,3.09,PE,1743360754
225,afaahiti,-17.75,-149.2833,299.42,77,23,6.25,PF,1743360860
226,yuzhno-kurilsk,44.0306,145.8556,269.95,74,2,3.49,RU,1743360861
227,darwin,-12.4611,130.8418,301.14,89,20,3.6,AU,1743360862
228,tshikapa,-6.4167,20.8,298.04,82,100,1.79,CD,1743360863
229,lodwar,3.1191,35.5973,304.17,46,80,8.82,KE,1743360865
230,bredasdorp,-34.5322,20.0403,290.92,85,100,5.99,ZA,1743360866
231,kharabali,47.4196,47.2568,286.53,52,0,5.53,RU,1743360867
232,nizhnesortymskiy,62.4397,71.7603,275.34,97,100,5.19,RU,1743360869
233,al mishkhab,31.8042,44.4911,297.21,45,100,6.6,IQ,1743360870
234,tucuma,-0.1833,-50.05,299.59,90,100,2.7,BR,1743360823
235,nemuro,43.3236,145.575,271.99,72,6,5.35,JP,1743360873
236,tazacorte,28.629,-17.9293,293.69,77,20,2.06,ES,1743360874
237,cidade velha,14.9167,-23.6167,296.41,60,75,8.23,CV,1743360875
238,roxas,11.5853,122.7511,298.81,89,100,4.28,PH,1743360876
239,verkhnevilyuysk,63.4453,120.3167,266.03,97,100,1.47,RU,1743360877
240,sirre,8.3167,39.4833,292.27,68,0,3.45,ET,1743360878
241,jinchang,38.4953,102.1739,275.68,23,18,2.02,CN,1743360880
242,cabo san lucas,22.8909,-109.9124,299.13,46,60,2.68,MX,1743360881
243,fort bragg,35.139,-79.006,298.06,56,100,5.66,US,1743360882
244,tura,25.5198,90.2201,295.42,9,100,1.87,IN,1743360883
245,qaqortoq,60.7167,-46.0333,264.64,69,0,1.11,GL,1743360884
246,constantia,44.1833,28.65,283.54,91,65,1.65,RO,1743360738
247,vennesla,58.2694,7.9741,278.31,84,0,2.06,NO,1743360887
248,tibati,6.4667,12.6333,300.32,23,11,2.01,CM,1743360888
249,geraldton,-28.7667,114.6,300.38,32,100,5.66,AU,1743360890
250,tazovsky,67.4667,78.7,269.94,95,100,4.39,RU,1743360891
251,luwuk,-0.9516,122.7875,296.55,86,100,1.57,ID,1743360892
252,dunedin,-45.8742,170.5036,282.48,95,100,1.29,NZ,1743360893
253,ko lanta,7.5336,99.0865,299.19,79,100,4.85,TH,1743360894
254,livingston,55.9029,-3.5226,284.35,61,20,3.09,GB,1743360896
255,chonchi,-42.6128,-73.8092,287.1,71,99,2.89,CL,1743360897
256,miyaly,48.8844,53.7836,286.82,43,100,5.79,KZ,1743360898
257,sohbatpur,28.5202,68.5434,298.65,11,0,2.5,PK,1743360899
258,waingapu,-9.6567,120.2641,298.9,83,99,2.77,ID,1743360900
259,namibe,-15.1961,12.1522,297.25,89,100,3.69,AO,1743360901
260,sal rei,16.1833,-22.9167,295.26,68,75,7.72,CV,1743360902
261,lycksele,64.5954,18.6735,276.08,81,75,0.0,SE,1743360698
262,bloemfontein,-29.1211,26.214,290.86,52,0,0.51,ZA,1743360905
263,caetes,-8.7731,-36.6225,299.9,48,74,6.52,BR,1743360906
264,sinabang,2.4803,96.3801,297.74,94,100,0.94,ID,1743360907
265,jindabyne,-36.4167,148.6333,283.47,96,99,1.79,AU,1743360908
266,kirakira,-10.4544,161.9205,298.99,83,49,0.56,SB,1743360909
267,shaydon,40.6747,70.346,281.19,51,0,1.54,TJ,1743360910
268,batangafo,7.3008,18.2833,306.37,18,94,0.71,CF,1743360912
269,dzilam gonzalez,21.2833,-88.9333,310.44,30,5,1.49,MX,1743360913
270,kairouan,35.6781,10.0963,287.16,77,75,1.54,TN,1743360914
271,magadan,59.5667,150.8,262.97,95,100,0.93,RU,1743360915
272,mar del plata,-38.0023,-57.5575,296.16,64,75,4.12,AR,1743360916
273,mahibadhoo,3.7833,72.9667,301.57,75,96,2.9,MV,1743360917
274,saint-francois,46.4154,3.9054,284.84,76,100,5.14,FR,1743360918
275,sitka,57.0531,-135.33,281.09,66,0,2.06,US,1743360920
276,kovdor,67.5662,30.4758,272.46,97,100,1.37,RU,1743360922
277,tinogasta,-28.0632,-67.5649,306.27,23,0,5.31,AR,1743360808
278,queenstown,-31.8976,26.8753,287.69,77,8,3.01,ZA,1743360924
279,maralal,1.0968,36.698,289.89,84,75,3.22,KE,1743360926
280,bryne,58.7354,5.6477,280.9,76,0,8.23,NO,1743360927
281,tamanrasset,22.785,5.5228,296.1,10,0,6.17,DZ,1743360928
282,mareeba,-17.0,145.4333,295.61,98,100,0.52,AU,1743360929
283,port saint john's,-31.6229,29.5448,294.37,86,7,2.41,ZA,1743360931
284,ketchikan,55.3422,-131.6461,281.84,78,0,2.06,US,1743360932
285,villa regina,-39.1,-67.0667,294.25,15,48,3.58,AR,1743360933
286,richards bay,-28.783,32.0377,296.92,92,99,3.69,ZA,1743360935
287,svetlyy,54.675,20.1347,278.49,90,100,2.61,RU,1743360936
288,nieuw amsterdam,5.8833,-55.0833,300.5,70,100,5.71,SR,1743360937
289,kenora,49.8167,-94.4337,273.69,29,75,2.06,CA,1743360715
290,polyarnyy,69.1989,33.4478,272.26,78,100,2.97,RU,1743360939
291,novo aripuana,-5.1206,-60.3797,296.76,99,100,0.39,BR,1743360940
292,kandahar,31.0,65.75,290.29,23,0,1.06,AF,1743360941
293,christchurch,-43.5333,172.6333,285.39,86,40,1.54,NZ,1743360730
294,kuta,-8.7233,115.1723,300.12,89,75,4.63,ID,1743360945
295,karystos,38.0133,24.4161,288.94,56,80,1.34,GR,1743360946
296,sovetskaya gavan',48.9723,140.2878,259.57,83,1,3.54,RU,1743360947
297,palapag,12.5458,125.1147,297.27,94,100,2.84,PH,1743360948
298,kapuskasing,49.4169,-82.4331,270.2,33,100,5.14,CA,1743360692
299,khovd,48.0056,91.6419,273.04,33,0,0.02,MN,1743360951
300,ha'il,27.5219,41.6907,294.16,46,40,2.06,SA,1743360952
301,contramaestre,20.2978,-76.2414,303.37,52,78,3.93,CU,1743360953
302,arraial do cabo,-22.9661,-42.0278,304.13,65,20,6.17,BR,1743360954
303,meadow lakes,61.6247,-149.6011,278.31,50,0,3.6,US,1743360955
304,murghob,38.1702,73.9667,252.67,63,49,2.76,TJ,1743360956
305,banket,-17.3833,30.4,293.01,75,53,1.98,ZW,1743360957
306,sao gabriel da cachoeira,-0.1303,-67.0892,303.04,74,75,1.54,BR,1743360959
307,moratuwa,6.773,79.8816,300.01,80,65,1.61,LK,1743360960
308,ola,59.5833,151.2833,262.34,95,100,0.7,RU,1743360961
309,nar'yan-mar,67.6713,53.087,273.63,100,100,2.68,RU,1743360962
310,saguenay,48.4168,-71.0657,274.6,42,100,6.17,CA,1743360782
311,morehead city,34.7229,-76.726,298.15,72,0,5.14,US,1743360824
312,conception bay south,47.4999,-52.9981,277.62,65,75,3.09,CA,1743360966
313,touros,-5.1989,-35.4608,302.4,67,92,5.77,BR,1743360967
314,kendari,-3.945,122.4989,297.17,90,100,1.26,ID,1743360968
315,balykchy,42.4557,76.1861,275.91,58,61,1.29,KG,1743360970
316,naze,28.3667,129.4833,283.66,71,100,4.58,JP,1743360971
317,woolgoolga,-30.1106,153.2007,291.08,81,27,5.11,AU,1743360972
318,bubaque,11.2833,-15.8333,296.64,73,17,7.59,GW,1743360973
319,porto novo,6.4965,2.6036,303.05,76,98,5.2,BJ,1743360974
320,san andres,12.5847,-81.7006,304.16,62,20,5.14,CO,1743360975
321,vila velha,-20.3297,-40.2925,304.12,62,20,5.66,BR,1743360794
322,atasu,48.6814,71.6433,267.27,87,4,2.08,KZ,1743360978
323,jabor,5.921,169.6434,300.37,82,95,7.07,MH,1743360979
324,banjarmasin,-3.3244,114.591,299.23,96,100,1.02,ID,1743360883
325,trzacka rastela,44.9733,15.7903,283.7,92,100,1.14,BA,1743360981
326,kodinsk,58.6881,99.1844,274.73,90,100,6.26,RU,1743360983
327,kailua-kona,19.6406,-155.9956,299.13,77,100,2.06,US,1743360984
328,tarauaca,-8.1614,-70.7656,298.38,84,100,1.08,BR,1743360985
329,columbus,39.9612,-82.9988,292.1,94,100,5.66,US,1743360848
330,ciudad bolivar,8.1222,-63.5497,310.92,25,100,3.09,VE,1743360987
331,acarau,-2.8856,-40.12,301.32,73,100,5.16,BR,1743360988
332,northam,51.0333,-4.2167,282.79,83,9,2.92,GB,1743360989
333,elliot lake,46.3834,-82.6331,270.22,93,100,4.33,CA,1743360991
334,auki,-8.7676,160.7034,297.54,90,100,1.99,SB,1743360992
335,port alfred,-33.5906,26.891,291.03,88,77,0.48,ZA,1743360993
336,pirenopolis,-15.8525,-48.9592,302.53,58,100,1.93,BR,1743360722
337,gaigeturi,33.4644,126.3183,276.18,70,20,1.54,KR,1743360995
338,semera,11.501,41.201,300.26,46,71,6.94,ET,1743360996
339,howrah,22.5892,88.3103,302.15,79,20,4.12,IN,1743360997
340,hithadhoo,-0.6,73.0833,301.59,77,100,4.87,MV,1743360999
341,laguna,38.421,-121.4238,287.69,71,0,10.29,US,1743361000
342,alo,6.5486,4.2686,300.63,85,99,3.32,NG,1743361001
343,kati,12.7441,-8.0726,309.82,7,0,2.54,ML,1743361002
344,mossel bay,-34.1831,22.146,291.11,94,99,6.06,ZA,1743361003
345,malango,-2.9627,119.9001,293.21,99,100,0.8,ID,1743361004
346,znamenskoye,57.1281,73.8282,272.4,94,100,1.96,RU,1743361005
347,san fernando de apure,7.8878,-67.4724,311.23,25,94,3.72,VE,1743360978
348,aral,40.5156,81.2636,281.7,14,100,2.52,CN,1743361008
349,raduzhny,62.0961,77.475,275.31,97,100,4.85,RU,1743361009
350,puerto madryn,-42.7692,-65.0385,284.2,68,100,14.76,AR,1743360984
351,cambridge,43.3601,-80.3127,277.72,98,100,2.57,CA,1743360724
352,sisimiut,66.9395,-53.6735,264.18,74,100,3.33,GL,1743361012
353,mudgee,-32.5943,149.5871,288.49,84,57,1.53,AU,1743361013
354,al kharijah,25.4514,30.5464,295.85,18,100,3.08,EG,1743361014
355,inaruwa,26.6011,87.1488,297.31,16,90,1.65,NP,1743361016
356,calexico,32.679,-115.4989,301.53,26,0,8.75,US,1743361017
357,olyokminsk,60.3736,120.4264,266.45,97,100,1.47,RU,1743361018
358,vipiteno,46.8925,11.4301,281.12,73,100,3.72,IT,1743361019
359,sharan,54.8167,54.0,272.58,93,27,1.66,RU,1743361020
360,sinazongwe,-17.2614,27.4618,298.52,66,2,1.58,ZM,1743361021
361,la foa,-21.7108,165.8276,297.3,85,100,1.29,NC,1743361023
362,bukama,-9.2,25.85,294.93,95,78,1.22,CD,1743361024
363,bonthe,7.5264,-12.505,300.26,74,9,4.62,SL,1743361025
364,vaasa,63.096,21.6158,277.16,84,0,3.13,FI,1743361026
365,kilindoni,-7.9139,39.6668,300.62,79,100,4.46,TZ,1743361027
366,ad dabbah,18.05,30.95,303.76,11,2,3.49,SD,1743361028
367,cozumel,20.5083,-86.9458,303.68,70,54,4.14,MX,1743361029
368,kohat,33.582,71.4493,292.11,22,0,1.85,PK,1743361031
369,tra vinh,9.9347,106.3453,300.1,79,100,3.41,VN,1743361032
370,ghat,24.9647,10.1728,296.07,9,0,6.87,LY,1743361033
371,hadibu,12.65,54.0333,299.15,71,1,2.7,YE,1743361034
372,mankono,8.0586,-6.1897,298.16,77,100,3.23,CI,1743361036
373,chita,52.0333,113.55,272.09,64,40,4.0,RU,1743361037
374,gwadar,25.1216,62.3254,297.61,52,0,5.65,PK,1743361038
375,thinadhoo,0.5333,72.9333,301.75,76,100,4.16,MV,1743361039
376,crane,31.3974,-102.3501,299.64,10,2,4.48,US,1743361040
377,kruisfontein,-34.0033,24.7314,291.5,89,100,1.54,ZA,1743361041
378,aguilas,37.4063,-1.5829,288.1,59,47,1.67,ES,1743361043
379,develi,38.3906,35.4922,279.25,90,100,2.55,TR,1743361044
380,klyuchi,52.2667,79.1667,276.21,66,4,2.37,RU,1743361045
381,kingsland,30.8,-81.6898,294.93,92,100,1.72,US,1743361044
382,kas,36.2018,29.6377,287.58,65,7,1.02,TR,1743361047
383,castillos,-34.1667,-53.8333,301.25,37,6,4.18,UY,1743361049
384,magadi,12.9667,77.2333,296.69,30,0,2.08,IN,1743361050
385,persembe,41.0656,37.7714,284.78,98,100,3.82,TR,1743361051
386,valparaiso,-33.0393,-71.6273,293.28,66,40,7.72,CL,1743361041
387,wewak,-3.5534,143.6268,298.88,86,98,1.42,PG,1743361054
388,la sarre,48.8002,-79.1996,269.81,87,100,5.19,CA,1743360834
389,qarqin,37.4185,66.0436,290.55,34,0,5.47,AF,1743361057
390,shiprock,36.7855,-108.687,286.92,26,71,3.04,US,1743361058
391,lincoln city,44.9582,-124.0179,286.68,81,100,0.89,US,1743361059
392,ciudad insurgentes,25.2625,-111.7753,298.13,25,0,7.88,MX,1743361060
393,lihue,21.9789,-159.3672,295.92,64,20,3.09,US,1743361062
394,viedma,-40.8135,-62.9967,294.16,21,85,8.67,AR,1743361063
395,kerikeri,-35.2268,173.9474,284.21,92,60,1.73,NZ,1743361064
396,bakanas,44.8081,76.2772,283.61,42,99,3.98,KZ,1743361065
397,riacho de santana,-13.6092,-42.9389,305.45,32,100,1.29,BR,1743361066
398,narvik,68.4384,17.4272,274.41,80,95,3.15,NO,1743361067
399,shengli,37.4564,118.4856,279.32,31,13,3.21,CN,1743361068
400,isafjordur,66.0755,-23.124,272.27,94,100,8.64,IS,1743361070
401,el jadid,33.2549,-8.506,291.05,70,0,6.34,MA,1743361071
402,suoyarvi,62.0833,32.35,275.16,98,100,0.5,RU,1743361073
403,burang,30.25,81.1667,264.65,70,100,1.88,CN,1743361074
404,glace bay,46.1969,-59.957,276.42,65,40,4.02,CA,1743361075
405,eregli,37.5133,34.0467,282.9,58,76,1.81,TR,1743361077
406,wetter,50.9,8.7167,282.27,64,6,5.95,DE,1743361078
407,kudymkar,59.0173,54.656,274.52,96,99,1.88,RU,1743361080
408,shingu,33.7333,135.9833,276.63,70,100,2.63,JP,1743361081
409,al jawf,29.5,38.75,291.87,29,97,7.93,SA,1743361082
410,puerto baquerizo moreno,-0.9,-89.6,302.7,79,20,3.09,EC,1743361083
411,bidur,4.1167,101.2833,299.32,94,99,2.02,MY,1743361085
412,moama,-36.1167,144.7833,288.13,73,100,6.17,AU,1743361086
413,vorkuta,67.5,64.0,273.36,99,100,3.6,RU,1743361087
414,poyang,28.9924,116.6675,280.94,83,66,1.61,CN,1743361088
415,pinotepa nacional,16.3167,-98.0167,308.06,23,21,4.75,MX,1743361090
416,pacific grove,36.6177,-121.9166,289.76,83,45,10.73,US,1743361091
417,miquelon,47.0975,-56.3814,273.29,79,0,10.36,PM,1743361092
418,mount isa,-20.7333,139.5,296.02,78,100,3.6,AU,1743361093
419,el calafate,-50.3408,-72.2768,282.27,49,2,9.58,AR,1743361095
420,argo,37.6333,22.7333,287.24,82,74,1.77,GR,1743361096
421,madingou,-4.1536,13.55,297.47,92,100,1.04,CG,1743361097
422,kismayo,-0.3582,42.5454,300.65,79,65,5.82,SO,1743361099
423,puerto maldonado,-12.6,-69.1833,303.37,70,40,4.12,PE,1743361100
424,tegueste,28.5167,-16.3167,291.29,77,40,2.68,ES,1743361102
425,saint-philippe,-21.3585,55.7679,299.29,81,44,5.04,RE,1743361103
426,kutum,14.2,24.6667,300.43,15,81,2.51,SD,1743361104
427,brookings,44.3114,-96.7984,272.62,96,100,6.69,US,1743361105
428,nuku'alofa,-21.1333,-175.2,297.34,94,75,2.06,TO,1743361107
429,elblag,54.1522,19.4088,280.13,81,60,2.28,PL,1743361108
430,thurso,58.5927,-3.5259,281.29,79,100,1.89,GB,1743360952
431,pandan,14.0453,124.1694,298.28,87,100,3.07,PH,1743361111
432,kimberley,-28.7323,24.7623,292.98,68,0,3.09,ZA,1743361112
433,jeremie,18.65,-74.1167,300.64,73,50,2.75,HT,1743361113
434,recani,31.2846,-4.2688,299.24,10,0,3.28,MA,1743361114
435,saint-pierre,-21.3393,55.4781,298.97,78,0,8.23,RE,1743361117
436,poronaysk,49.2167,143.1167,268.64,68,100,6.41,RU,1743361119
437,nogliki,51.8333,143.1667,270.29,96,100,5.31,RU,1743361120
438,takum,7.2667,9.9833,307.35,30,97,1.86,NG,1743361121
439,chulym,55.0997,80.9572,272.53,89,10,3.51,RU,1743361124
440,sigli,5.3848,95.9609,299.41,85,100,2.17,ID,1743361125
441,midvagur,62.0511,-7.1939,279.61,81,100,10.8,FO,1743361126
442,anna regina,7.2644,-58.5077,301.18,72,100,3.91,GY,1743361129
443,szczecinek,53.7079,16.6994,279.14,85,100,1.4,PL,1743361130
444,monrovia,6.3005,-10.7969,300.1,85,99,4.05,LR,1743361131
445,severobaykal'sk,55.65,109.3167,268.36,97,100,0.32,RU,1743361132
446,korla,41.7597,86.1469,280.75,39,96,0.7,CN,1743361134
447,miri,4.4148,114.0089,298.23,94,40,1.54,MY,1743361135
448,basco,20.4487,121.9702,297.89,81,100,9.07,PH,1743360892
449,noshiro,40.2039,140.0242,274.11,44,100,7.19,JP,1743361139
450,portage la prairie,49.9728,-98.2926,268.65,53,100,5.29,CA,1743361140
451,taoudenni,22.6783,-3.9836,304.97,15,100,4.94,ML,1743361141
452,buritis,-15.6178,-46.4233,306.91,32,18,1.43,BR,1743361142
453,chatham,51.3789,0.5279,287.66,46,0,4.24,GB,1743361144
454,conceicao do araguaia,-8.2578,-49.2647,301.91,74,26,2.59,BR,1743361145
455,veraval,20.9,70.3667,300.41,29,0,4.73,IN,1743361146
456,plouzane,48.3833,-4.6167,284.2,83,40,5.66,FR,1743361109
457,pemba,-12.974,40.5178,301.54,78,75,2.94,MZ,1743361149
458,klamath falls,42.2249,-121.7817,280.91,73,100,8.49,US,1743361150
459,kayangel,8.0823,134.7173,301.05,77,100,6.36,PW,1743361151
460,nishinoomote,30.7333,131.0,284.84,67,100,6.65,JP,1743361152
461,cururupu,-1.8283,-44.8683,302.52,67,40,2.62,BR,1743361153
462,kapa'a,22.0752,-159.319,296.33,91,20,3.09,US,1743361154
463,guasdualito,7.2424,-70.7324,305.13,51,75,2.06,VE,1743361156
464,faget,45.85,22.1833,284.05,92,68,1.49,RO,1743361157
465,mujiayingzi,42.1167,118.7833,272.47,43,14,2.91,CN,1743361158
466,tsiombe,-25.3,45.4833,296.98,89,0,2.44,MG,1743361159
467,inarajan village,13.2736,144.7484,300.69,79,100,8.56,GU,1743361161
468,nev'yansk,57.4953,60.2112,270.41,96,17,1.76,RU,1743361162
469,puerto aysen,-45.4,-72.7,281.96,97,100,2.25,CL,1743361163
470,ulysses,37.5814,-101.3552,285.17,54,0,3.6,US,1743361164
471,fortuna,40.5982,-124.1573,286.66,88,100,12.86,US,1743361046
472,la almunia de dona godina,41.4767,-1.3745,285.98,57,0,2.56,ES,1743361168
473,nizhniy odes,63.6445,54.856,274.29,99,100,2.06,RU,1743361169
474,agat village,13.3886,144.6585,300.67,83,40,4.12,GU,1743361170
475,dubbo,-32.25,148.6167,289.22,88,75,2.57,AU,1743361171
476,manicore,-5.8092,-61.3003,296.55,99,100,0.92,BR,1743361172
477,calvinia,-31.4707,19.776,294.19,36,0,1.79,ZA,1743361174
478,hashtrud,37.4779,47.0508,286.04,54,100,0.75,IR,1743361175
479,saurimo,-9.6608,20.3916,292.82,94,100,1.27,AO,1743361176
480,bure,10.7,37.0667,295.02,25,32,4.13,ET,1743361177
481,tucupita,9.0622,-62.051,304.89,44,98,3.32,VE,1743361178
482,cacu,-18.5567,-51.1308,305.19,40,78,2.42,BR,1743361179
483,arar,30.9753,41.0381,291.16,72,20,3.09,SA,1743361180
484,mil'kovo,55.6078,37.7956,282.39,54,54,2.39,RU,1743361182
485,esperantinopolis,-4.8667,-44.7083,301.4,80,88,1.22,BR,1743361183
486,qalat,32.1058,66.9083,286.13,34,0,3.18,AF,1743361184
487,stebnyk,49.2942,23.5636,282.09,88,100,1.03,UA,1743361185
488,tambopata,-12.7333,-69.1833,303.09,70,40,4.12,PE,1743361186
489,sinop,41.7711,34.8709,282.9,92,100,0.77,TR,1743361187
490,gualdo tadino,43.2317,12.781,283.68,75,31,2.17,IT,1743361188
491,goldap,54.3063,22.3036,280.92,89,100,2.31,PL,1743361190
492,lisakovsk,52.5369,62.4936,281.94,79,100,6.31,KZ,1743361191
493,jiayuguan,39.8167,98.3,276.26,12,79,2.87,CN,1743361192
494,bandon,51.7469,-8.7425,288.92,87,100,2.95,IE,1743361193
495,fairwood,47.4484,-122.1573,288.57,43,100,4.92,US,1743361194
496,sao jose da coroa grande,-8.8978,-35.1478,302.28,64,100,4.58,BR,1743361195
497,ribadesella,43.4614,-5.0596,285.11,79,6,4.19,ES,1743361196
498,ambikapur,23.1167,83.2,292.34,7,0,0.51,IN,1743361198
499,mahdia,35.5047,11.0622,288.38,69,100,9.5,TN,1743361199
500,salzwedel,52.85,11.15,281.25,81,97,7.13,DE,1743361200
501,san borja,-14.8167,-66.85,300.67,92,100,1.43,BO,1743361201
502,hobyo,5.3505,48.5268,300.77,66,1,5.31,SO,1743361203
503,floro,61.5996,5.0328,280.13,61,20,8.23,NO,1743361204
504,norilsk,69.3535,88.2027,266.28,93,100,4.15,RU,1743361205
505,funafuti,-8.5243,179.1942,301.7,77,70,3.74,TV,1743361206
506,lerwick,60.1545,-1.1494,278.55,67,96,1.73,GB,1743361207
507,vondrozo,-22.8167,47.2833,293.13,98,61,0.37,MG,1743361208
508,ust-nera,64.5667,143.2,246.94,100,93,1.89,RU,1743361209
509,talaja,21.35,72.05,302.77,11,2,4.08,IN,1743361211
510,jincheng,35.5022,112.8328,278.91,32,0,1.08,CN,1743361212
511,arauca,7.0847,-70.7591,305.13,51,75,2.06,CO,1743361213
512,leava,-14.3,-178.1667,301.29,71,80,1.29,WF,1743361214
513,butembo,0.15,29.2833,288.53,92,39,1.2,CD,1743361215
514,puerto escondido,15.85,-97.0667,303.18,52,100,6.34,MX,1743361216
515,urucurituba,-2.6833,-57.6667,298.05,95,100,1.52,BR,1743361218
516,ceerigaabo,10.6162,47.368,293.59,42,1,3.94,SO,1743361219
517,dakhla,23.6848,-15.958,294.16,73,0,3.09,EH,1743361220
518,minas de marcona,-15.2119,-75.1103,296.21,56,100,9.86,PE,1743361221
519,margate,51.3813,1.3862,285.2,71,6,4.67,GB,1743361109
520,torghay,49.6339,63.4981,282.72,57,100,4.13,KZ,1743361224
521,kavaratti,10.5669,72.642,301.56,73,5,4.26,IN,1743361225
522,lockwood,45.8191,-108.4149,273.38,90,100,5.66,US,1743361226
523,deqen,29.9618,90.7188,277.41,30,73,1.89,CN,1743361228
524,inverloch,-38.6333,145.7167,287.86,73,38,6.86,AU,1743361229
525,shubarshi,48.5872,57.1869,284.04,49,97,6.5,KZ,1743361231
526,barakani,-12.1356,44.4317,300.35,82,99,3.24,KM,1743361232
527,al jadid,27.05,14.4,294.16,13,1,5.92,LY,1743361233
528,moanda,-1.5575,13.2178,300.28,92,100,1.93,GA,1743361235
529,port-cartier,50.0334,-66.8654,268.8,67,100,3.68,CA,1743361236
530,savalou,7.9281,1.9756,302.36,65,100,4.74,BJ,1743361237
531,azna,33.6095,48.9307,287.26,47,100,1.76,IR,1743361238
532,dryden,49.7833,-92.7503,271.31,26,40,2.57,CA,1743361239
533,nacala,-14.5428,40.6728,298.99,84,100,1.98,MZ,1743361240
534,yigo village,13.5361,144.8886,299.44,83,75,8.23,GU,1743361241
535,amga,60.8953,131.9608,257.97,96,100,1.76,RU,1743361243
536,tateyama,34.9833,139.8667,279.55,73,100,8.23,JP,1743361244
537,micheweni,-4.9667,39.8333,300.41,81,92,3.04,TZ,1743361245
538,coahuayana de hidalgo,18.7,-103.6583,304.76,23,100,3.43,MX,1743361246
539,deschutes river woods,43.9915,-121.3584,283.17,44,75,6.69,US,1743361247
540,medicine hat,50.0501,-110.6683,274.43,55,75,3.09,CA,1743361248
541,kuraymah,18.55,31.85,303.49,11,5,4.24,SD,1743361249
542,mogadishu,2.0371,45.3438,301.18,76,18,6.2,SO,1743361252
543,ljubuski,43.1969,17.545,288.83,73,21,2.13,BA,1743361253
544,nadym,65.5333,72.5167,274.62,96,100,6.91,RU,1743361254
545,talas,38.6908,35.5538,280.52,76,75,2.06,TR,1743361255
546,baharly,38.4362,57.4316,292.75,41,0,3.35,TM,1743361256
547,broome,42.2506,-75.833,291.87,74,100,0.89,US,1743361257
548,jhinjhak,26.5667,79.7333,295.51,9,0,3.06,IN,1743361259
549,aykhal,66.0,111.5,263.72,99,100,2.47,RU,1743361260
550,saint-joseph,-21.3667,55.6167,298.36,80,32,5.47,RE,1743361261
551,grants,35.1473,-107.8514,285.28,19,75,1.54,US,1743361263
552,lisala,2.15,21.5167,299.08,64,90,1.47,CD,1743361264
553,bengkulu,-3.8004,102.2655,298.19,90,100,1.59,ID,1743361265
554,zest'aponi,42.11,43.0525,290.06,65,100,1.86,GE,1743361267
555,koryukivka,51.7688,32.2481,282.82,70,98,2.9,UA,1743361268
556,chichli,22.8333,78.8167,299.3,9,0,1.79,IN,1743361270
557,bandrele,-12.9067,45.1914,301.01,78,0,2.57,YT,1743361271
558,maceio,-9.6658,-35.7353,303.84,62,40,6.69,BR,1743361202
559,atar,20.5169,-13.0499,301.18,32,100,3.09,MR,1743361273
560,fairfax,38.8501,-77.3497,300.97,44,75,8.75,US,1743360982
561,antonio enes,-16.2325,39.9086,299.45,81,26,2.41,MZ,1743361276
562,weihai,37.5017,122.1136,275.92,51,4,4.69,CN,1743361277
563,arrah,25.5667,84.6667,296.63,5,45,3.62,IN,1743361278
564,gao,16.6362,1.637,305.59,13,100,5.57,ML,1743361280
565,island harbour,50.724,-1.2758,286.49,56,5,1.34,GB,1743361281
566,manokwari,-0.8667,134.0833,299.05,79,98,1.29,ID,1743361283
567,baganga,7.5739,126.56,298.13,91,100,1.52,PH,1743361284
568,ulsteinvik,62.3432,5.8487,279.65,76,49,2.98,NO,1743361285
569,acucena,-19.0731,-42.5464,301.66,51,59,2.02,BR,1743361218
570,caluula,11.9661,50.7569,298.93,76,5,6.61,SO,1743361288
571,ongole,15.5,80.05,299.33,78,5,4.21,IN,1743361108
572,sarandi,-23.4436,-51.8739,302.9,62,20,3.09,BR,1743361290
573,camacupa,-12.0167,17.4833,290.93,94,100,0.88,AO,1743361292
574,beaufort west,-32.3567,22.583,295.79,38,0,5.96,ZA,1743361049
575,montepuez,-13.1256,38.9997,294.18,99,100,1.53,MZ,1743361294
576,shelbyville,35.4834,-86.4603,294.83,53,100,8.23,US,1743361296
577,namtsy,62.7161,129.6658,256.6,100,100,1.6,RU,1743361297
578,vilhena,-12.7406,-60.1458,300.27,78,75,3.6,BR,1743361298
579,lekki,6.3607,4.8333,300.52,84,68,1.7,NG,1743361300
580,port macquarie,-31.4333,152.9167,294.3,81,70,0.89,AU,1743361301
581,san nicolas guadalupe,19.6125,-100.0333,296.1,10,100,0.33,MX,1743361302
582,mohr,54.3528,9.7167,281.23,87,100,6.69,DE,1743361303
583,paraiso,9.8383,-83.8656,298.79,57,68,2.22,CR,1743361304
584,bheramara,24.0232,88.9925,298.78,40,98,0.6,BD,1743361305
585,jaisalmer,26.9147,70.9181,299.78,7,0,2.51,IN,1743361306
586,oranjemund,-28.55,16.4333,290.24,91,49,8.15,NA,1743361307
